[
  {
    "id":200077,
    "name":"THE VOLCANO",
    "date":"2014-02-17 00:00:00",
    "lat":29.7255,
    "lng":-95.4147,
    "cuisine":"",
    "status":"PASS",
    "score":1,
    "site":"BAR",
    "weight":4,
    "rats":"0",
    "bugs":"0",
    "slime":"0",
    "condemned":"0"
  },
  {
    "id":200078,
    "name":"HOBBIT CAFE'",
    "date":"2014-01-29 00:00:00",
    "lat":29.7342,
    "lng":-95.4139,
    "cuisine":"LOCAL / CONTINENTAL",
    "status":"PASS",
    "score":1,
    "site":"KITCHEN",
    "weight":4,
    "rats":"0",
    "bugs":"0",
    "slime":"0",
    "condemned":"0"
  },
  {
    "id":200104,
    "name":"SUBWAY SANDWICHES",
    "date":"2014-02-28 00:00:00",
    "lat":29.7704,
    "lng":-95.4109,
    "cuisine":"",
    "status":"PASS",
    "score":1,
    "site":"Kitchen",
    "weight":2,
    "rats":"0",
    "bugs":"0",
    "slime":"0",
    "condemned":"0"
  },
  {
    "id":200105,
    "name":"RUGGLES CAFE & BAKERY",
    "date":"2014-02-01 00:00:00",
    "lat":29.7175,
    "lng":-95.4143,
    "cuisine":"BAR & GRILL",
    "status":"PASS",
    "score":1,
    "site":"TOTAL ESTABLISHMENT",
    "weight":2,
    "rats":"0",
    "bugs":"0",
    "slime":"0",
    "condemned":"0"
  },
  {
    "id":200106,
    "name":"COURTESY FOOD STORE",
    "date":"2014-03-13 00:00:00",
    "lat":29.8196,
    "lng":-95.4996,
    "cuisine":"CHICKEN",
    "status":"FAIL",
    "score":4,
    "site":"STORE/DELI",
    "weight":20,
    "rats":"0",
    "bugs":"0",
    "slime":"0",
    "condemned":"0"
  },
  {
    "id":200114,
    "name":"TEXAS LAND & CATTLE CO.",
    "date":"2014-04-09 00:00:00",
    "lat":29.6071,
    "lng":-95.2098,
    "cuisine":"BAR & GRILL",
    "status":"FAIL",
    "score":3,
    "site":"TOTAL ESTABLISHMENT",
    "weight":11,
    "rats":"0",
    "bugs":"0",
    "slime":"0",
    "condemned":"0"
  },
  {
    "id":200115,
    "name":"CHICK-FIL-A",
    "date":"2013-10-07 00:00:00",
    "lat":29.6891,
    "lng":-95.4651,
    "cuisine":"CHICKEN",
    "status":"PASS",
    "score":1,
    "site":"TOTAL ESTABLISHMENT",
    "weight":1,
    "rats":"0",
    "bugs":"0",
    "slime":"0",
    "condemned":"0"
  },
  {
    "id":200121,
    "name":"FOGO DE CHAO",
    "date":"2013-12-23 00:00:00",
    "lat":29.7375,
    "lng":-95.5119,
    "cuisine":"",
    "status":"PASS",
    "score":2,
    "site":"Establishment",
    "weight":5,
    "rats":"0",
    "bugs":"0",
    "slime":"0",
    "condemned":"0"
  },
  {
    "id":200123,
    "name":"LARRY'S BAR B Q",
    "date":"2014-04-11 00:00:00",
    "lat":29.8603,
    "lng":-95.5269,
    "cuisine":"BARBECUE",
    "status":"FAIL",
    "score":3,
    "site":"TOTAL SITES",
    "weight":9,
    "rats":"0",
    "bugs":"0",
    "slime":"0",
    "condemned":"0"
  },
  {
    "id":200127,
    "name":"CHILI'S GRILL & BAR",
    "date":"2013-11-06 00:00:00",
    "lat":29.7377,
    "lng":-95.4901,
    "cuisine":"BAR & GRILL",
    "status":"PASS",
    "score":2,
    "site":"TOTAL SITES",
    "weight":6,
    "rats":"0",
    "bugs":"0",
    "slime":"1",
    "condemned":"0"
  },
  {
    "id":200141,
    "name":"SHIPLEY DONUT",
    "date":"2013-10-15 00:00:00",
    "lat":29.8452,
    "lng":-95.3845,
    "cuisine":"",
    "status":"PASS",
    "score":2,
    "site":"FACILITY",
    "weight":7,
    "rats":"0",
    "bugs":"0",
    "slime":"0",
    "condemned":"0"
  },
  {
    "id":200142,
    "name":"OSTIONERIA LAS ROCAS",
    "date":"2013-11-20 00:00:00",
    "lat":29.8661,
    "lng":-95.3848,
    "cuisine":"SEAFOOD",
    "status":"FAIL",
    "score":3,
    "site":"TOTAL ESTABLISHMENT",
    "weight":9,
    "rats":"0",
    "bugs":"0",
    "slime":"0",
    "condemned":"0"
  },
  {
    "id":200143,
    "name":"KOJAK'S",
    "date":"2013-10-23 00:00:00",
    "lat":29.8015,
    "lng":-95.4338,
    "cuisine":"DELI",
    "status":"PASS",
    "score":2,
    "site":"ESTABLISHMENT",
    "weight":8,
    "rats":"0",
    "bugs":"0",
    "slime":"0",
    "condemned":"0"
  },
  {
    "id":200146,
    "name":"RICHARDS GROCERY STORE",
    "date":"2013-08-13 00:00:00",
    "lat":29.7822,
    "lng":-95.4755,
    "cuisine":"",
    "status":"PASS",
    "score":4,
    "site":"Store",
    "weight":24,
    "rats":"0",
    "bugs":"0",
    "slime":"1",
    "condemned":"0"
  },
  {
    "id":200147,
    "name":"KINGSPOINT MART",
    "date":"2013-07-10 00:00:00",
    "lat":29.6184,
    "lng":-95.2302,
    "cuisine":"OTHER",
    "status":"PASS",
    "score":1,
    "site":"STORE",
    "weight":4,
    "rats":"0",
    "bugs":"0",
    "slime":"0",
    "condemned":"0"
  },
  {
    "id":200150,
    "name":"BISTRO LE CEP",
    "date":"2013-08-08 00:00:00",
    "lat":29.7368,
    "lng":-95.5728,
    "cuisine":"FRENCH",
    "status":"PASS",
    "score":2,
    "site":"Total Establishment",
    "weight":7,
    "rats":"0",
    "bugs":"0",
    "slime":"0",
    "condemned":"0"
  },
  {
    "id":200187,
    "name":"SMOOTHIE KING",
    "date":"2013-10-17 00:00:00",
    "lat":29.6858,
    "lng":-95.4611,
    "cuisine":"BEVERAGES, ETC.",
    "status":"PASS",
    "score":1,
    "site":"TOTAL ESTABLISHMENT",
    "weight":2,
    "rats":"0",
    "bugs":"0",
    "slime":"0",
    "condemned":"0"
  },
  {
    "id":200190,
    "name":"SHOP-N-GO",
    "date":"2014-01-10 00:00:00",
    "lat":29.8002,
    "lng":-95.3611,
    "cuisine":"",
    "status":"PASS",
    "score":3,
    "site":"Store",
    "weight":9,
    "rats":"0",
    "bugs":"0",
    "slime":"0",
    "condemned":"0"
  },
  {
    "id":200207,
    "name":"WAL-MART #2718",
    "date":"2013-09-25 00:00:00",
    "lat":29.6769,
    "lng":-95.4588,
    "cuisine":"BEVERAGES, ETC.",
    "status":"PASS",
    "score":1,
    "site":"TOTAL ESTABLISHMENT",
    "weight":1,
    "rats":"0",
    "bugs":"0",
    "slime":"0",
    "condemned":"0"
  },
  {
    "id":200208,
    "name":"McGOWEN ELEMENTARY",
    "date":"2013-10-16 00:00:00",
    "lat":29.8206,
    "lng":-95.3019,
    "cuisine":"",
    "status":"PASS",
    "score":1,
    "site":"Kitchen",
    "weight":1,
    "rats":"0",
    "bugs":"0",
    "slime":"0",
    "condemned":"0"
  },
  {
    "id":200223,
    "name":"SUNRISE GROCERY #10",
    "date":"2014-02-18 00:00:00",
    "lat":29.7919,
    "lng":-95.5796,
    "cuisine":"MEXICAN / HISPANIC",
    "status":"FAIL",
    "score":3,
    "site":"TOTAL SITES",
    "weight":12,
    "rats":"0",
    "bugs":"0",
    "slime":"0",
    "condemned":"0"
  },
  {
    "id":200231,
    "name":"LA RUCHE IMPORTS",
    "date":"2013-10-29 00:00:00",
    "lat":29.6715,
    "lng":-95.5399,
    "cuisine":"",
    "status":"FAIL",
    "score":5,
    "site":"0",
    "weight":34,
    "rats":"0",
    "bugs":"0",
    "slime":"0",
    "condemned":"0"
  },
  {
    "id":200236,
    "name":"TEXAS LAND & CATTLE STEAKHOUSE",
    "date":"2014-01-16 00:00:00",
    "lat":29.7843,
    "lng":-95.6048,
    "cuisine":"BAR & GRILL",
    "status":"PASS",
    "score":1,
    "site":"Kitchen",
    "weight":3,
    "rats":"0",
    "bugs":"0",
    "slime":"0",
    "condemned":"0"
  },
  {
    "id":200245,
    "name":"TAN TAN KITCHEN",
    "date":"2013-11-05 00:00:00",
    "lat":29.7064,
    "lng":-95.5453,
    "cuisine":"CHINESE",
    "status":"PASS",
    "score":1,
    "site":"KITCHEN",
    "weight":1,
    "rats":"0",
    "bugs":"0",
    "slime":"0",
    "condemned":"0"
  },
  {
    "id":200250,
    "name":"CH BURGERS",
    "date":"2013-07-15 00:00:00",
    "lat":29.744,
    "lng":-95.4708,
    "cuisine":"BURGERS, ETC.",
    "status":"PASS",
    "score":3,
    "site":"KITCHEN",
    "weight":12,
    "rats":"0",
    "bugs":"0",
    "slime":"0",
    "condemned":"0"
  },
  {
    "id":200251,
    "name":"KROGER #363",
    "date":"2013-11-07 00:00:00",
    "lat":29.7371,
    "lng":-95.5458,
    "cuisine":"",
    "status":"PASS",
    "score":1,
    "site":"Total Establishment",
    "weight":3,
    "rats":"0",
    "bugs":"0",
    "slime":"0",
    "condemned":"0"
  },
  {
    "id":200259,
    "name":"FAMILY DOLLAR #3777",
    "date":"2014-02-15 00:00:00",
    "lat":29.7036,
    "lng":-95.6021,
    "cuisine":"",
    "status":"PASS",
    "score":1,
    "site":"0",
    "weight":4,
    "rats":"0",
    "bugs":"0",
    "slime":"0",
    "condemned":"0"
  },
  {
    "id":200261,
    "name":"SMALL STEPS NURTURING CENTER",
    "date":"2013-09-09 00:00:00",
    "lat":29.778,
    "lng":-95.375,
    "cuisine":"",
    "status":"PASS",
    "score":1,
    "site":"Kitchen",
    "weight":2,
    "rats":"0",
    "bugs":"0",
    "slime":"0",
    "condemned":"0"
  },
  {
    "id":200265,
    "name":"HONG KONG FOOD MARKET",
    "date":"2013-08-23 00:00:00",
    "lat":29.7037,
    "lng":-95.5793,
    "cuisine":"",
    "status":"PASS",
    "score":1,
    "site":"Warehouse",
    "weight":1,
    "rats":"0",
    "bugs":"0",
    "slime":"0",
    "condemned":"0"
  },
  {
    "id":200270,
    "name":"SMOOTHIE KING",
    "date":"2014-04-08 00:00:00",
    "lat":29.7378,
    "lng":-95.4884,
    "cuisine":"BEVERAGES, ETC.",
    "status":"PASS",
    "score":1,
    "site":"Kitchen",
    "weight":3,
    "rats":"1",
    "bugs":"0",
    "slime":"0",
    "condemned":"0"
  },
  {
    "id":200291,
    "name":"TAN BINH MARKET",
    "date":"2014-04-08 00:00:00",
    "lat":29.7039,
    "lng":-95.5808,
    "cuisine":"",
    "status":"PASS",
    "score":1,
    "site":"TOTAL ESTABLISHMENT",
    "weight":3,
    "rats":"0",
    "bugs":"0",
    "slime":"0",
    "condemned":"0"
  },
  {
    "id":200294,
    "name":"PHO DANH RESTAURANT",
    "date":"2014-02-22 00:00:00",
    "lat":29.7037,
    "lng":-95.5794,
    "cuisine":"VIETNAMESE",
    "status":"FAIL",
    "score":3,
    "site":"TOTAL ESTABLISHMENT",
    "weight":9,
    "rats":"0",
    "bugs":"0",
    "slime":"0",
    "condemned":"0"
  },
  {
    "id":200404,
    "name":"AMC THEATERS WILLOWBROOK 24",
    "date":"2013-12-11 00:00:00",
    "lat":29.9538,
    "lng":-95.5394,
    "cuisine":"MEXICAN / HISPANIC",
    "status":"PASS",
    "score":1,
    "site":"MACGUFFINS",
    "weight":1,
    "rats":"0",
    "bugs":"0",
    "slime":"0",
    "condemned":"0"
  },
  {
    "id":200414,
    "name":"SALTGRASS STEAK HOUSE #15",
    "date":"2013-08-17 00:00:00",
    "lat":29.9553,
    "lng":-95.5415,
    "cuisine":"BAR & GRILL",
    "status":"PASS",
    "score":1,
    "site":"ESTABLISHMENT",
    "weight":3,
    "rats":"0",
    "bugs":"0",
    "slime":"0",
    "condemned":"0"
  },
  {
    "id":200422,
    "name":"WALGREENS #5671",
    "date":"2014-02-05 00:00:00",
    "lat":30.0498,
    "lng":-95.185,
    "cuisine":"",
    "status":"PASS",
    "score":1,
    "site":"0",
    "weight":1,
    "rats":"0",
    "bugs":"0",
    "slime":"0",
    "condemned":"0"
  },
  {
    "id":200431,
    "name":"BABIN'S SEAFOOD",
    "date":"2014-02-17 00:00:00",
    "lat":29.9562,
    "lng":-95.5428,
    "cuisine":"SEAFOOD",
    "status":"PASS",
    "score":1,
    "site":"TOTAL ESTABLISHMENT",
    "weight":2,
    "rats":"0",
    "bugs":"0",
    "slime":"0",
    "condemned":"0"
  },
  {
    "id":200554,
    "name":"K Q FOOD STORE",
    "date":"2013-11-01 00:00:00",
    "lat":29.7971,
    "lng":-95.5266,
    "cuisine":"",
    "status":"PASS",
    "score":1,
    "site":"0",
    "weight":1,
    "rats":"0",
    "bugs":"0",
    "slime":"0",
    "condemned":"0"
  },
  {
    "id":200569,
    "name":"CAFE CASPIAN",
    "date":"2014-02-28 00:00:00",
    "lat":29.7364,
    "lng":-95.5944,
    "cuisine":"MIDDLE EASTERN",
    "status":"PASS",
    "score":2,
    "site":"ESTABLISHMENT",
    "weight":5,
    "rats":"0",
    "bugs":"0",
    "slime":"0",
    "condemned":"0"
  },
  {
    "id":200578,
    "name":"JOANN'S CAFE",
    "date":"2014-03-25 00:00:00",
    "lat":29.784,
    "lng":-95.5603,
    "cuisine":"",
    "status":"PASS",
    "score":1,
    "site":"Kitchen",
    "weight":2,
    "rats":"0",
    "bugs":"0",
    "slime":"0",
    "condemned":"0"
  },
  {
    "id":200591,
    "name":"PANADERIA TOTOPAN",
    "date":"2013-10-25 00:00:00",
    "lat":29.7289,
    "lng":-95.5298,
    "cuisine":"",
    "status":"PASS",
    "score":1,
    "site":"TOTAL ESTABLISHMENT",
    "weight":3,
    "rats":"0",
    "bugs":"0",
    "slime":"0",
    "condemned":"0"
  },
  {
    "id":200592,
    "name":"HOKKAIDO JAPANESE KITCHEN",
    "date":"2013-10-25 00:00:00",
    "lat":29.705,
    "lng":-95.544,
    "cuisine":"JAPANESE",
    "status":"PASS",
    "score":1,
    "site":"KITCHEN",
    "weight":4,
    "rats":"0",
    "bugs":"0",
    "slime":"0",
    "condemned":"0"
  },
  {
    "id":200608,
    "name":"BEST WESTERN",
    "date":"2013-09-04 00:00:00",
    "lat":29.9827,
    "lng":-95.2804,
    "cuisine":"",
    "status":"PASS",
    "score":1,
    "site":"Kitchen",
    "weight":1,
    "rats":"0",
    "bugs":"0",
    "slime":"0",
    "condemned":"0"
  },
  {
    "id":200609,
    "name":"FAMILY DOLLAR #2690",
    "date":"2014-02-02 00:00:00",
    "lat":29.7238,
    "lng":-95.3784,
    "cuisine":"",
    "status":"PASS",
    "score":1,
    "site":"Store",
    "weight":1,
    "rats":"0",
    "bugs":"0",
    "slime":"0",
    "condemned":"0"
  },
  {
    "id":200638,
    "name":"THE HARP",
    "date":"2013-12-11 00:00:00",
    "lat":29.7343,
    "lng":-95.4007,
    "cuisine":"",
    "status":"PASS",
    "score":1,
    "site":"0",
    "weight":2,
    "rats":"0",
    "bugs":"0",
    "slime":"0",
    "condemned":"0"
  },
  {
    "id":200644,
    "name":"THE NEUROPSYCHIATRIC CENTER",
    "date":"2013-08-02 00:00:00",
    "lat":29.7117,
    "lng":-95.3943,
    "cuisine":"",
    "status":"PASS",
    "score":1,
    "site":"ESTABLISHMENT",
    "weight":2,
    "rats":"0",
    "bugs":"0",
    "slime":"0",
    "condemned":"0"
  },
  {
    "id":200649,
    "name":"PAUL'S SNACK SHOP",
    "date":"2014-02-03 00:00:00",
    "lat":29.7595,
    "lng":-95.3598,
    "cuisine":"SANDWICHES",
    "status":"PASS",
    "score":2,
    "site":"TOTAL ESTABLISHMENT",
    "weight":8,
    "rats":"0",
    "bugs":"0",
    "slime":"0",
    "condemned":"0"
  },
  {
    "id":200656,
    "name":"THIRD BASE",
    "date":"2013-10-23 00:00:00",
    "lat":29.5568,
    "lng":-95.1239,
    "cuisine":"",
    "status":"PASS",
    "score":1,
    "site":"0",
    "weight":4,
    "rats":"0",
    "bugs":"0",
    "slime":"0",
    "condemned":"0"
  },
  {
    "id":200658,
    "name":"CROWN MART",
    "date":"2014-03-08 00:00:00",
    "lat":29.6877,
    "lng":-95.3248,
    "cuisine":"BEVERAGES, ETC.",
    "status":"FAIL",
    "score":5,
    "site":"TOTAL ESTABLISHMENT",
    "weight":32,
    "rats":"0",
    "bugs":"0",
    "slime":"0",
    "condemned":"0"
  },
  {
    "id":200672,
    "name":"MUHAMMAD UNIVERSITY OF ISLAM",
    "date":"2014-03-06 00:00:00",
    "lat":29.7052,
    "lng":-95.3459,
    "cuisine":"",
    "status":"PASS",
    "score":1,
    "site":"TOTAL ESTABLISHMENT",
    "weight":3,
    "rats":"0",
    "bugs":"0",
    "slime":"0",
    "condemned":"0"
  },
  {
    "id":200676,
    "name":"SUNNYSIDE ADULT DAY CARE",
    "date":"2013-10-17 00:00:00",
    "lat":29.6837,
    "lng":-95.3919,
    "cuisine":"",
    "status":"PASS",
    "score":1,
    "site":"KITCHEN",
    "weight":4,
    "rats":"0",
    "bugs":"0",
    "slime":"0",
    "condemned":"0"
  },
  {
    "id":200992,
    "name":"REFRESQUERIA RIO VERDE-CAMPANA",
    "date":"2013-11-06 00:00:00",
    "lat":29.803,
    "lng":-95.4936,
    "cuisine":"",
    "status":"PASS",
    "score":1,
    "site":"8315 LONG POINT",
    "weight":3,
    "rats":"0",
    "bugs":"0",
    "slime":"0",
    "condemned":"0"
  },
  {
    "id":201161,
    "name":"BEST BUY FOOD MART #2",
    "date":"2014-03-12 00:00:00",
    "lat":29.7724,
    "lng":-95.3012,
    "cuisine":"",
    "status":"PASS",
    "score":1,
    "site":"Store",
    "weight":2,
    "rats":"0",
    "bugs":"0",
    "slime":"0",
    "condemned":"0"
  },
  {
    "id":201172,
    "name":"HANDI PLUS #27( Shell Gosohhe)",
    "date":"2013-10-29 00:00:00",
    "lat":29.8436,
    "lng":-95.3429,
    "cuisine":"",
    "status":"PASS",
    "score":1,
    "site":"TOTAL ESTABLISHMENT",
    "weight":2,
    "rats":"0",
    "bugs":"0",
    "slime":"0",
    "condemned":"0"
  },
  {
    "id":201187,
    "name":"EDWARDS MARQ-E THEATRE",
    "date":"2014-03-13 00:00:00",
    "lat":29.7848,
    "lng":-95.4661,
    "cuisine":"LOCAL / CONTINENTAL",
    "status":"PASS",
    "score":1,
    "site":"Establishment",
    "weight":3,
    "rats":"0",
    "bugs":"0",
    "slime":"0",
    "condemned":"0"
  },
  {
    "id":201191,
    "name":"VIETOPIA",
    "date":"2013-07-29 00:00:00",
    "lat":29.7277,
    "lng":-95.4279,
    "cuisine":"VIETNAMESE",
    "status":"FAIL",
    "score":3,
    "site":"TOTAL ESTABLISHMENT",
    "weight":11,
    "rats":"0",
    "bugs":"0",
    "slime":"0",
    "condemned":"0"
  },
  {
    "id":201203,
    "name":"LA PREFERIDA",
    "date":"2013-12-13 00:00:00",
    "lat":29.7185,
    "lng":-95.489,
    "cuisine":"",
    "status":"FAIL",
    "score":4,
    "site":"Establishment",
    "weight":19,
    "rats":"0",
    "bugs":"0",
    "slime":"0",
    "condemned":"0"
  },
  {
    "id":201213,
    "name":"LA MORENITA",
    "date":"2013-08-19 00:00:00",
    "lat":29.8431,
    "lng":-95.2617,
    "cuisine":"MEXICAN / HISPANIC",
    "status":"PASS",
    "score":2,
    "site":"TOTAL ESTABLISHMENT",
    "weight":8,
    "rats":"0",
    "bugs":"0",
    "slime":"0",
    "condemned":"0"
  },
  {
    "id":202069,
    "name":"STARBUCKS COFFEE #6332",
    "date":"2014-04-02 00:00:00",
    "lat":29.7557,
    "lng":-95.3627,
    "cuisine":"BEVERAGES, ETC.",
    "status":"PASS",
    "score":1,
    "site":"Kitchen",
    "weight":4,
    "rats":"0",
    "bugs":"0",
    "slime":"0",
    "condemned":"0"
  },
  {
    "id":202089,
    "name":"NIXON HOME CARE ADULT DAY CARE",
    "date":"2014-04-11 00:00:00",
    "lat":29.8205,
    "lng":-95.3336,
    "cuisine":"",
    "status":"PASS",
    "score":1,
    "site":"Kitchen",
    "weight":4,
    "rats":"0",
    "bugs":"0",
    "slime":"0",
    "condemned":"0"
  },
  {
    "id":202092,
    "name":"SHELL FOOD MART",
    "date":"2013-08-30 00:00:00",
    "lat":29.8319,
    "lng":-95.5694,
    "cuisine":"BAR & GRILL",
    "status":"PASS",
    "score":2,
    "site":"TOTAL SITES",
    "weight":7,
    "rats":"0",
    "bugs":"0",
    "slime":"0",
    "condemned":"0"
  },
  {
    "id":202105,
    "name":"SOUTHWEST KEY PROGRAM",
    "date":"2013-07-16 00:00:00",
    "lat":29.8346,
    "lng":-95.262,
    "cuisine":"",
    "status":"PASS",
    "score":1,
    "site":"KITCHEN",
    "weight":1,
    "rats":"0",
    "bugs":"0",
    "slime":"0",
    "condemned":"0"
  },
  {
    "id":202106,
    "name":"TREASURE TOWN ACADEMY",
    "date":"2013-12-10 00:00:00",
    "lat":29.8776,
    "lng":-95.3001,
    "cuisine":"",
    "status":"PASS",
    "score":1,
    "site":"Total Establishment",
    "weight":3,
    "rats":"0",
    "bugs":"0",
    "slime":"0",
    "condemned":"0"
  },
  {
    "id":202112,
    "name":"VALERO - AMIGO MART",
    "date":"2013-12-02 00:00:00",
    "lat":29.7724,
    "lng":-95.2839,
    "cuisine":"",
    "status":"PASS",
    "score":2,
    "site":"Total Establishment",
    "weight":5,
    "rats":"0",
    "bugs":"0",
    "slime":"0",
    "condemned":"0"
  },
  {
    "id":202125,
    "name":"LA CAMPESINA MEAT MARKET #1",
    "date":"2013-08-21 00:00:00",
    "lat":29.7749,
    "lng":-95.2177,
    "cuisine":"",
    "status":"FAIL",
    "score":3,
    "site":"Establishment",
    "weight":12,
    "rats":"0",
    "bugs":"0",
    "slime":"0",
    "condemned":"0"
  },
  {
    "id":202126,
    "name":"MO MO CLUB",
    "date":"2013-07-23 00:00:00",
    "lat":29.7942,
    "lng":-95.5411,
    "cuisine":"",
    "status":"PASS",
    "score":1,
    "site":"kitchen /bar",
    "weight":3,
    "rats":"0",
    "bugs":"0",
    "slime":"0",
    "condemned":"0"
  },
  {
    "id":202284,
    "name":"ALONTI CAFE # 48",
    "date":"2014-02-19 00:00:00",
    "lat":29.7601,
    "lng":-95.3638,
    "cuisine":"DELI",
    "status":"FAIL",
    "score":3,
    "site":"kitchen",
    "weight":9,
    "rats":"0",
    "bugs":"0",
    "slime":"0",
    "condemned":"0"
  },
  {
    "id":202291,
    "name":"CONOCO FOOD MART",
    "date":"2014-04-03 00:00:00",
    "lat":29.715,
    "lng":-95.2784,
    "cuisine":"",
    "status":"PASS",
    "score":1,
    "site":"Total Establishment",
    "weight":2,
    "rats":"0",
    "bugs":"0",
    "slime":"0",
    "condemned":"0"
  },
  {
    "id":202293,
    "name":"SHERLOCK'S PUB",
    "date":"2013-08-14 00:00:00",
    "lat":29.5742,
    "lng":-95.1084,
    "cuisine":"",
    "status":"PASS",
    "score":1,
    "site":"TOTAL ESTABLISHMENT",
    "weight":3,
    "rats":"0",
    "bugs":"0",
    "slime":"0",
    "condemned":"0"
  },
  {
    "id":202296,
    "name":"HERMANN PARK GOLF COURSE C.H.",
    "date":"2013-08-20 00:00:00",
    "lat":29.7138,
    "lng":-95.3822,
    "cuisine":"DELI",
    "status":"PASS",
    "score":1,
    "site":"kitchen",
    "weight":2,
    "rats":"0",
    "bugs":"0",
    "slime":"0",
    "condemned":"0"
  },
  {
    "id":202315,
    "name":"HARTMAN MIDDLE SCHOOL PTO",
    "date":"2013-11-20 00:00:00",
    "lat":29.6727,
    "lng":-95.3011,
    "cuisine":"",
    "status":"PASS",
    "score":1,
    "site":"P.T.O CONCESSION",
    "weight":1,
    "rats":"0",
    "bugs":"0",
    "slime":"0",
    "condemned":"0"
  },
  {
    "id":202338,
    "name":"SUBWAY #4279",
    "date":"2013-10-16 00:00:00",
    "lat":29.7557,
    "lng":-95.3627,
    "cuisine":"DELI",
    "status":"PASS",
    "score":1,
    "site":"Kitchen",
    "weight":4,
    "rats":"0",
    "bugs":"0",
    "slime":"0",
    "condemned":"0"
  },
  {
    "id":202345,
    "name":"LA MORELIANA #7 CARNICERIA",
    "date":"2014-02-15 00:00:00",
    "lat":29.6922,
    "lng":-95.2776,
    "cuisine":"",
    "status":"PASS",
    "score":2,
    "site":"TOTAL ESTABLISHMENT",
    "weight":8,
    "rats":"0",
    "bugs":"0",
    "slime":"0",
    "condemned":"0"
  },
  {
    "id":202448,
    "name":"CRAWFISH & BEIGNETS",
    "date":"2013-07-17 00:00:00",
    "lat":29.7038,
    "lng":-95.5758,
    "cuisine":"SEAFOOD",
    "status":"PASS",
    "score":2,
    "site":"Kitchen",
    "weight":6,
    "rats":"0",
    "bugs":"0",
    "slime":"0",
    "condemned":"0"
  },
  {
    "id":202468,
    "name":"MAGGIANO'S LITTLE ITALY",
    "date":"2014-02-22 00:00:00",
    "lat":29.7451,
    "lng":-95.461,
    "cuisine":"ITALIAN",
    "status":"FAIL",
    "score":3,
    "site":"Total Establishment",
    "weight":16,
    "rats":"0",
    "bugs":"0",
    "slime":"0",
    "condemned":"0"
  },
  {
    "id":202473,
    "name":"SHERATON SUITES",
    "date":"2013-08-22 00:00:00",
    "lat":29.7425,
    "lng":-95.4583,
    "cuisine":"LOCAL / CONTINENTAL",
    "status":"PASS",
    "score":2,
    "site":"TOTAL ESTABLISHMENT",
    "weight":6,
    "rats":"0",
    "bugs":"0",
    "slime":"0",
    "condemned":"0"
  },
  {
    "id":202477,
    "name":"KENNY AND ZIGGY'S",
    "date":"2013-12-20 00:00:00",
    "lat":29.7431,
    "lng":-95.461,
    "cuisine":"DELI",
    "status":"PASS",
    "score":1,
    "site":"Establishment",
    "weight":3,
    "rats":"0",
    "bugs":"0",
    "slime":"0",
    "condemned":"0"
  },
  {
    "id":202487,
    "name":"G.N.C.",
    "date":"2014-02-06 00:00:00",
    "lat":29.7565,
    "lng":-95.6254,
    "cuisine":"",
    "status":"FAIL",
    "score":5,
    "site":"Store",
    "weight":26,
    "rats":"0",
    "bugs":"0",
    "slime":"0",
    "condemned":"0"
  },
  {
    "id":202816,
    "name":"IMPACT HOUSTON CHURCH OF CHRIST",
    "date":"2014-01-29 00:00:00",
    "lat":29.7773,
    "lng":-95.3754,
    "cuisine":"LOCAL / CONTINENTAL",
    "status":"PASS",
    "score":1,
    "site":"Kitchen",
    "weight":3,
    "rats":"0",
    "bugs":"0",
    "slime":"0",
    "condemned":"0"
  },
  {
    "id":202827,
    "name":"ROSA BLANCA RESTAURANT",
    "date":"2014-02-20 00:00:00",
    "lat":29.8094,
    "lng":-95.382,
    "cuisine":"MEXICAN / HISPANIC",
    "status":"PASS",
    "score":1,
    "site":"Kitchen",
    "weight":4,
    "rats":"0",
    "bugs":"0",
    "slime":"0",
    "condemned":"0"
  },
  {
    "id":202846,
    "name":"MANNIE'S SEAFOOD MKT",
    "date":"2014-03-02 00:00:00",
    "lat":29.6696,
    "lng":-95.2631,
    "cuisine":"",
    "status":"PASS",
    "score":2,
    "site":"Total Establishment",
    "weight":5,
    "rats":"0",
    "bugs":"0",
    "slime":"0",
    "condemned":"0"
  },
  {
    "id":202851,
    "name":"CAO THANG SANDWICH",
    "date":"2014-04-13 00:00:00",
    "lat":29.7223,
    "lng":-95.5105,
    "cuisine":"",
    "status":"PASS",
    "score":1,
    "site":"Kitchen",
    "weight":3,
    "rats":"0",
    "bugs":"0",
    "slime":"0",
    "condemned":"0"
  },
  {
    "id":202855,
    "name":"LA MEXICANA FRUIT & MEAT #3",
    "date":"2014-04-04 00:00:00",
    "lat":29.7169,
    "lng":-95.4889,
    "cuisine":"",
    "status":"PASS",
    "score":2,
    "site":"Total Establishment",
    "weight":6,
    "rats":"0",
    "bugs":"0",
    "slime":"0",
    "condemned":"0"
  },
  {
    "id":202864,
    "name":"HANDI STOP #64",
    "date":"2014-03-18 00:00:00",
    "lat":29.7173,
    "lng":-95.2973,
    "cuisine":"",
    "status":"PASS",
    "score":1,
    "site":"Store",
    "weight":3,
    "rats":"0",
    "bugs":"0",
    "slime":"0",
    "condemned":"0"
  },
  {
    "id":202868,
    "name":"GOODE COMPANY SEAFOOD II",
    "date":"2013-12-18 00:00:00",
    "lat":29.7839,
    "lng":-95.5488,
    "cuisine":"SEAFOOD",
    "status":"PASS",
    "score":1,
    "site":"Establishment",
    "weight":4,
    "rats":"0",
    "bugs":"0",
    "slime":"0",
    "condemned":"0"
  },
  {
    "id":202874,
    "name":"D & T FOOD STORE",
    "date":"2013-08-06 00:00:00",
    "lat":29.6627,
    "lng":-95.368,
    "cuisine":"",
    "status":"PASS",
    "score":2,
    "site":"STORE",
    "weight":6,
    "rats":"0",
    "bugs":"0",
    "slime":"0",
    "condemned":"0"
  },
  {
    "id":202883,
    "name":"CELLAR BAR",
    "date":"2013-10-02 00:00:00",
    "lat":29.5559,
    "lng":-95.1231,
    "cuisine":"",
    "status":"PASS",
    "score":2,
    "site":"Bar",
    "weight":7,
    "rats":"0",
    "bugs":"0",
    "slime":"0",
    "condemned":"0"
  },
  {
    "id":202925,
    "name":"TAQUERIA MARY-Texas Commissary",
    "date":"2014-03-14 00:00:00",
    "lat":29.864,
    "lng":-95.3355,
    "cuisine":"",
    "status":"PASS",
    "score":1,
    "site":"3317 MARZELLE (THUR/T/10A-4P)",
    "weight":3,
    "rats":"0",
    "bugs":"0",
    "slime":"0",
    "condemned":"0"
  },
  {
    "id":203139,
    "name":"TAQUERIA ABASOLO",
    "date":"2013-12-13 00:00:00",
    "lat":29.7777,
    "lng":-95.3573,
    "cuisine":"MEXICAN / HISPANIC",
    "status":"PASS",
    "score":1,
    "site":"Kitchen",
    "weight":2,
    "rats":"0",
    "bugs":"0",
    "slime":"0",
    "condemned":"0"
  },
  {
    "id":203145,
    "name":"MARBLE SLAB CREAMERY",
    "date":"2014-01-17 00:00:00",
    "lat":29.9547,
    "lng":-95.5408,
    "cuisine":"",
    "status":"PASS",
    "score":1,
    "site":"KITCHEN",
    "weight":1,
    "rats":"0",
    "bugs":"0",
    "slime":"0",
    "condemned":"0"
  },
  {
    "id":203181,
    "name":"SHIPLEY DONUTS",
    "date":"2014-02-17 00:00:00",
    "lat":29.7718,
    "lng":-95.4236,
    "cuisine":"",
    "status":"PASS",
    "score":1,
    "site":"Prep Area",
    "weight":4,
    "rats":"0",
    "bugs":"0",
    "slime":"0",
    "condemned":"0"
  },
  {
    "id":203192,
    "name":"STAR OF HOPE MEN'S SHELTER",
    "date":"2013-07-24 00:00:00",
    "lat":29.7602,
    "lng":-95.3517,
    "cuisine":"",
    "status":"PASS",
    "score":2,
    "site":"TOTAL EST.",
    "weight":7,
    "rats":"0",
    "bugs":"0",
    "slime":"0",
    "condemned":"0"
  },
  {
    "id":203212,
    "name":"LUCERO BAKERY",
    "date":"2014-01-03 00:00:00",
    "lat":29.7931,
    "lng":-95.3563,
    "cuisine":"",
    "status":"PASS",
    "score":1,
    "site":"Total Establishment",
    "weight":4,
    "rats":"0",
    "bugs":"0",
    "slime":"0",
    "condemned":"0"
  },
  {
    "id":203235,
    "name":"JUANITA'S MEXICAN REST.",
    "date":"2014-02-12 00:00:00",
    "lat":29.8083,
    "lng":-95.441,
    "cuisine":"MEXICAN / HISPANIC",
    "status":"FAIL",
    "score":3,
    "site":"TOTAL ESTABLISHMENT",
    "weight":10,
    "rats":"0",
    "bugs":"0",
    "slime":"0",
    "condemned":"0"
  },
  {
    "id":203247,
    "name":"KOLACHE FACTORY #10",
    "date":"2013-09-25 00:00:00",
    "lat":29.7839,
    "lng":-95.5487,
    "cuisine":"",
    "status":"PASS",
    "score":1,
    "site":"Restaurant",
    "weight":4,
    "rats":"0",
    "bugs":"0",
    "slime":"0",
    "condemned":"0"
  },
  {
    "id":203500,
    "name":"MINUTE MAID PARK - ARAMARK",
    "date":"2013-10-24 00:00:00",
    "lat":29.758,
    "lng":-95.3536,
    "cuisine":"BEVERAGES, ETC.",
    "status":"PASS",
    "score":1,
    "site":"Cover Report",
    "weight":4,
    "rats":"0",
    "bugs":"0",
    "slime":"0",
    "condemned":"0"
  },
  {
    "id":203652,
    "name":"HOLY TRINITY DAY CARE",
    "date":"2013-12-12 00:00:00",
    "lat":29.7816,
    "lng":-95.1928,
    "cuisine":"",
    "status":"PASS",
    "score":1,
    "site":"0",
    "weight":1,
    "rats":"0",
    "bugs":"0",
    "slime":"0",
    "condemned":"0"
  },
  {
    "id":203655,
    "name":"KROGER #349",
    "date":"2013-07-18 00:00:00",
    "lat":29.7565,
    "lng":-95.6254,
    "cuisine":"",
    "status":"PASS",
    "score":2,
    "site":"Total Establishment",
    "weight":6,
    "rats":"0",
    "bugs":"0",
    "slime":"0",
    "condemned":"0"
  },
  {
    "id":203675,
    "name":"GNC",
    "date":"2014-01-22 00:00:00",
    "lat":29.5535,
    "lng":-95.1187,
    "cuisine":"",
    "status":"PASS",
    "score":1,
    "site":"0",
    "weight":1,
    "rats":"0",
    "bugs":"0",
    "slime":"0",
    "condemned":"0"
  },
  {
    "id":203691,
    "name":"THIRSTY'S",
    "date":"2013-12-22 00:00:00",
    "lat":29.7408,
    "lng":-95.4618,
    "cuisine":"",
    "status":"PASS",
    "score":2,
    "site":"Total Establishment",
    "weight":6,
    "rats":"0",
    "bugs":"0",
    "slime":"0",
    "condemned":"0"
  },
  {
    "id":203696,
    "name":"HOMEWOOD SUITES HOTEL",
    "date":"2013-09-05 00:00:00",
    "lat":30.0558,
    "lng":-95.2507,
    "cuisine":"BREAKFAST",
    "status":"PASS",
    "score":1,
    "site":"Kitchen",
    "weight":2,
    "rats":"0",
    "bugs":"0",
    "slime":"0",
    "condemned":"0"
  },
  {
    "id":203699,
    "name":"CAFE ADOBE",
    "date":"2013-08-23 00:00:00",
    "lat":29.7848,
    "lng":-95.4661,
    "cuisine":"MEXICAN / HISPANIC",
    "status":"PASS",
    "score":2,
    "site":"Establishment",
    "weight":5,
    "rats":"0",
    "bugs":"0",
    "slime":"0",
    "condemned":"0"
  },
  {
    "id":203715,
    "name":"BUCA DI BEPPO",
    "date":"2013-07-29 00:00:00",
    "lat":29.7276,
    "lng":-95.4279,
    "cuisine":"ITALIAN",
    "status":"FAIL",
    "score":3,
    "site":"Kitchen",
    "weight":9,
    "rats":"0",
    "bugs":"0",
    "slime":"0",
    "condemned":"0"
  },
  {
    "id":203716,
    "name":"LYNCH'S FINEST - TEXAS",
    "date":"2013-08-05 00:00:00",
    "lat":29.7617,
    "lng":-95.3579,
    "cuisine":"",
    "status":"PASS",
    "score":2,
    "site":"1201 FRANKLIN",
    "weight":6,
    "rats":"0",
    "bugs":"0",
    "slime":"0",
    "condemned":"0"
  },
  {
    "id":203970,
    "name":"CADECO INDUSTRIES",
    "date":"2013-09-11 00:00:00",
    "lat":29.7621,
    "lng":-95.3105,
    "cuisine":"",
    "status":"PASS",
    "score":1,
    "site":"WAREHOUSE",
    "weight":1,
    "rats":"0",
    "bugs":"0",
    "slime":"0",
    "condemned":"0"
  },
  {
    "id":203972,
    "name":"SUNSHINE'S HEALTH FOOD STORE",
    "date":"2014-03-01 00:00:00",
    "lat":29.708,
    "lng":-95.3357,
    "cuisine":"VEGETARIAN",
    "status":"PASS",
    "score":1,
    "site":"TOTAL ESTABLISHMENT",
    "weight":1,
    "rats":"0",
    "bugs":"0",
    "slime":"0",
    "condemned":"0"
  },
  {
    "id":203976,
    "name":"WHOLE FOODS MARKET",
    "date":"2013-11-25 00:00:00",
    "lat":29.7391,
    "lng":-95.4187,
    "cuisine":"",
    "status":"PASS",
    "score":2,
    "site":"Total facility",
    "weight":6,
    "rats":"0",
    "bugs":"0",
    "slime":"0",
    "condemned":"0"
  },
  {
    "id":203989,
    "name":"EL SOLOVINO BAR",
    "date":"2014-03-01 00:00:00",
    "lat":29.7222,
    "lng":-95.511,
    "cuisine":"",
    "status":"PASS",
    "score":1,
    "site":"Bar",
    "weight":2,
    "rats":"0",
    "bugs":"0",
    "slime":"0",
    "condemned":"0"
  },
  {
    "id":204007,
    "name":"ICE EXPRESS",
    "date":"2014-01-09 00:00:00",
    "lat":29.6782,
    "lng":-95.2699,
    "cuisine":"",
    "status":"PASS",
    "score":2,
    "site":"0",
    "weight":5,
    "rats":"0",
    "bugs":"0",
    "slime":"0",
    "condemned":"0"
  },
  {
    "id":204008,
    "name":"A & C ARMS OF LOVE",
    "date":"2013-12-10 00:00:00",
    "lat":29.6622,
    "lng":-95.3578,
    "cuisine":"",
    "status":"PASS",
    "score":1,
    "site":"TOTAL ESTABLISHMENT",
    "weight":1,
    "rats":"0",
    "bugs":"0",
    "slime":"0",
    "condemned":"0"
  },
  {
    "id":204013,
    "name":"TAQUERIA EL HERRADERO #2",
    "date":"2014-04-15 00:00:00",
    "lat":29.6266,
    "lng":-95.2855,
    "cuisine":"MEXICAN / HISPANIC",
    "status":"PASS",
    "score":2,
    "site":"TOTAL ESTABLISHMENT",
    "weight":5,
    "rats":"0",
    "bugs":"0",
    "slime":"0",
    "condemned":"0"
  },
  {
    "id":204020,
    "name":"LIFE'S LITTLE BLESSINGS",
    "date":"2013-12-16 00:00:00",
    "lat":29.6258,
    "lng":-95.2404,
    "cuisine":"",
    "status":"PASS",
    "score":1,
    "site":"TOTAL ESTABLISHMENT",
    "weight":2,
    "rats":"0",
    "bugs":"0",
    "slime":"0",
    "condemned":"0"
  },
  {
    "id":204334,
    "name":"LOGAN'S ROADHOUSE INC",
    "date":"2014-01-07 00:00:00",
    "lat":29.7418,
    "lng":-95.6443,
    "cuisine":"BAR & GRILL",
    "status":"PASS",
    "score":1,
    "site":"TOTAL SITES",
    "weight":1,
    "rats":"0",
    "bugs":"0",
    "slime":"0",
    "condemned":"0"
  },
  {
    "id":204346,
    "name":"MCDONALD'S #24917",
    "date":"2014-01-26 00:00:00",
    "lat":29.6745,
    "lng":-95.5614,
    "cuisine":"BURGERS, ETC.",
    "status":"PASS",
    "score":2,
    "site":"ESTABLISHMENT",
    "weight":6,
    "rats":"0",
    "bugs":"0",
    "slime":"0",
    "condemned":"0"
  },
  {
    "id":204353,
    "name":"CAFE EUROPE",
    "date":"2014-01-16 00:00:00",
    "lat":29.7376,
    "lng":-95.4843,
    "cuisine":"",
    "status":"PASS",
    "score":3,
    "site":"Total Establishment",
    "weight":15,
    "rats":"0",
    "bugs":"0",
    "slime":"1",
    "condemned":"1"
  },
  {
    "id":204357,
    "name":"KIDIZONE",
    "date":"2013-09-17 00:00:00",
    "lat":29.7192,
    "lng":-95.6047,
    "cuisine":"",
    "status":"PASS",
    "score":1,
    "site":"Kitchen",
    "weight":2,
    "rats":"0",
    "bugs":"0",
    "slime":"0",
    "condemned":"0"
  },
  {
    "id":204370,
    "name":"VIET TIEN TOFU AND FAST FOOD",
    "date":"2013-07-31 00:00:00",
    "lat":29.7039,
    "lng":-95.5766,
    "cuisine":"VIETNAMESE",
    "status":"PASS",
    "score":1,
    "site":"TOTAL ESTABLISHMENT",
    "weight":4,
    "rats":"0",
    "bugs":"0",
    "slime":"0",
    "condemned":"0"
  },
  {
    "id":204372,
    "name":"THE ABBEY",
    "date":"2014-02-17 00:00:00",
    "lat":29.7309,
    "lng":-95.5951,
    "cuisine":"",
    "status":"PASS",
    "score":2,
    "site":"Wellness Stations",
    "weight":7,
    "rats":"0",
    "bugs":"0",
    "slime":"0",
    "condemned":"0"
  },
  {
    "id":204378,
    "name":"WINSENG BOOK & GIFT INC",
    "date":"2013-11-25 00:00:00",
    "lat":29.705,
    "lng":-95.544,
    "cuisine":"",
    "status":"PASS",
    "score":1,
    "site":"0",
    "weight":1,
    "rats":"0",
    "bugs":"0",
    "slime":"0",
    "condemned":"0"
  },
  {
    "id":204397,
    "name":"SKAYS CHEVRON",
    "date":"2014-03-09 00:00:00",
    "lat":29.6646,
    "lng":-95.464,
    "cuisine":"",
    "status":"PASS",
    "score":1,
    "site":"Store",
    "weight":1,
    "rats":"0",
    "bugs":"0",
    "slime":"0",
    "condemned":"0"
  },
  {
    "id":204791,
    "name":"ROSE'S DELI AND CATERING",
    "date":"2013-10-11 00:00:00",
    "lat":29.9409,
    "lng":-95.3318,
    "cuisine":"",
    "status":"PASS",
    "score":1,
    "site":"KITCHEN",
    "weight":1,
    "rats":"0",
    "bugs":"0",
    "slime":"0",
    "condemned":"0"
  },
  {
    "id":204804,
    "name":"WESTCHESTER ACADEMY",
    "date":"2013-10-10 00:00:00",
    "lat":29.782,
    "lng":-95.5816,
    "cuisine":"",
    "status":"PASS",
    "score":1,
    "site":"Kitchen",
    "weight":4,
    "rats":"0",
    "bugs":"0",
    "slime":"0",
    "condemned":"0"
  },
  {
    "id":204829,
    "name":"LITTLE WOODROWS",
    "date":"2014-02-02 00:00:00",
    "lat":29.7156,
    "lng":-95.4149,
    "cuisine":"",
    "status":"PASS",
    "score":1,
    "site":"Bar",
    "weight":4,
    "rats":"0",
    "bugs":"0",
    "slime":"0",
    "condemned":"0"
  },
  {
    "id":204833,
    "name":"SELLER BROTHERS",
    "date":"2013-12-13 00:00:00",
    "lat":29.8098,
    "lng":-95.526,
    "cuisine":"",
    "status":"PASS",
    "score":1,
    "site":"TOTAL SITES",
    "weight":3,
    "rats":"0",
    "bugs":"0",
    "slime":"0",
    "condemned":"0"
  },
  {
    "id":204867,
    "name":"VANGUARD ACADEMY",
    "date":"2013-12-12 00:00:00",
    "lat":29.7014,
    "lng":-95.5675,
    "cuisine":"",
    "status":"PASS",
    "score":1,
    "site":"TOTAL ESTABLISHMENT",
    "weight":1,
    "rats":"0",
    "bugs":"0",
    "slime":"0",
    "condemned":"0"
  },
  {
    "id":204871,
    "name":"JOHNSON & JOHNSON ADULT DAY CARE",
    "date":"2013-12-30 00:00:00",
    "lat":29.6457,
    "lng":-95.445,
    "cuisine":"",
    "status":"PASS",
    "score":1,
    "site":"TOTAL ESTABLISHMENT",
    "weight":4,
    "rats":"0",
    "bugs":"0",
    "slime":"0",
    "condemned":"0"
  },
  {
    "id":204872,
    "name":"BOUDREAUX'S CAJUN KITCHEN",
    "date":"2014-01-31 00:00:00",
    "lat":29.7006,
    "lng":-95.2965,
    "cuisine":"CAJUN",
    "status":"PASS",
    "score":1,
    "site":"TOTAL ESTABLISHMENT",
    "weight":3,
    "rats":"0",
    "bugs":"0",
    "slime":"0",
    "condemned":"0"
  },
  {
    "id":204875,
    "name":"DENNY'S #7443",
    "date":"2013-11-19 00:00:00",
    "lat":29.7031,
    "lng":-95.2964,
    "cuisine":"LOCAL / CONTINENTAL",
    "status":"PASS",
    "score":1,
    "site":"TOTAL ESTABLISHMENT",
    "weight":1,
    "rats":"0",
    "bugs":"0",
    "slime":"0",
    "condemned":"0"
  },
  {
    "id":204891,
    "name":"TIME MART #12",
    "date":"2013-11-12 00:00:00",
    "lat":29.5998,
    "lng":-95.3536,
    "cuisine":"CHICKEN",
    "status":"PASS",
    "score":1,
    "site":"TOTAL EST.",
    "weight":4,
    "rats":"0",
    "bugs":"0",
    "slime":"0",
    "condemned":"0"
  },
  {
    "id":204896,
    "name":"SER-NINOS CHARTER SCHOOL",
    "date":"2013-10-16 00:00:00",
    "lat":29.7177,
    "lng":-95.4806,
    "cuisine":"",
    "status":"PASS",
    "score":1,
    "site":"Kitchen",
    "weight":4,
    "rats":"0",
    "bugs":"0",
    "slime":"0",
    "condemned":"0"
  },
  {
    "id":204908,
    "name":"FAMILY DOLLAR #4387",
    "date":"2014-02-17 00:00:00",
    "lat":29.7761,
    "lng":-95.2184,
    "cuisine":"",
    "status":"PASS",
    "score":2,
    "site":"0",
    "weight":12,
    "rats":"0",
    "bugs":"0",
    "slime":"0",
    "condemned":"0"
  },
  {
    "id":204913,
    "name":"KENTUCKY FRIED CHICKEN #Y34323",
    "date":"2014-01-03 00:00:00",
    "lat":29.6408,
    "lng":-95.2427,
    "cuisine":"CHICKEN",
    "status":"PASS",
    "score":1,
    "site":"kitchen",
    "weight":1,
    "rats":"0",
    "bugs":"0",
    "slime":"0",
    "condemned":"0"
  },
  {
    "id":204915,
    "name":"LOS CORRALES TAQUERIA",
    "date":"2013-11-27 00:00:00",
    "lat":29.7405,
    "lng":-95.2882,
    "cuisine":"MEXICAN / HISPANIC",
    "status":"PASS",
    "score":1,
    "site":"KITCHEN",
    "weight":4,
    "rats":"0",
    "bugs":"0",
    "slime":"0",
    "condemned":"0"
  },
  {
    "id":204919,
    "name":"POST OAK GRILL EXPRESS-MAIN",
    "date":"2014-01-30 00:00:00",
    "lat":29.7574,
    "lng":-95.3684,
    "cuisine":"",
    "status":"PASS",
    "score":2,
    "site":"0",
    "weight":6,
    "rats":"0",
    "bugs":"0",
    "slime":"0",
    "condemned":"0"
  },
  {
    "id":204920,
    "name":"POST OAK GRILL EXPRESS-SIDE",
    "date":"2014-01-30 00:00:00",
    "lat":29.7574,
    "lng":-95.3684,
    "cuisine":"",
    "status":"PASS",
    "score":2,
    "site":"Food Station",
    "weight":5,
    "rats":"0",
    "bugs":"0",
    "slime":"0",
    "condemned":"0"
  },
  {
    "id":204925,
    "name":"FAST EDDIE'S BILLIARDS",
    "date":"2013-11-27 00:00:00",
    "lat":29.6183,
    "lng":-95.219,
    "cuisine":"",
    "status":"PASS",
    "score":2,
    "site":"0",
    "weight":7,
    "rats":"0",
    "bugs":"0",
    "slime":"0",
    "condemned":"0"
  },
  {
    "id":204926,
    "name":"FAMILY DOLLAR #4407",
    "date":"2014-02-06 00:00:00",
    "lat":29.6426,
    "lng":-95.2269,
    "cuisine":"",
    "status":"PASS",
    "score":1,
    "site":"0",
    "weight":1,
    "rats":"0",
    "bugs":"0",
    "slime":"0",
    "condemned":"0"
  },
  {
    "id":205278,
    "name":"J. LUNA PRODUCE",
    "date":"2013-07-02 00:00:00",
    "lat":29.8114,
    "lng":-95.382,
    "cuisine":"",
    "status":"PASS",
    "score":2,
    "site":"0",
    "weight":7,
    "rats":"0",
    "bugs":"0",
    "slime":"0",
    "condemned":"0"
  },
  {
    "id":205484,
    "name":"JENSEN EXPRESS MART( Valero Gasoline)",
    "date":"2013-10-10 00:00:00",
    "lat":29.8398,
    "lng":-95.3428,
    "cuisine":"",
    "status":"PASS",
    "score":1,
    "site":"TOTAL ESTABLISHMENT",
    "weight":1,
    "rats":"0",
    "bugs":"0",
    "slime":"0",
    "condemned":"0"
  },
  {
    "id":205491,
    "name":"TEXAS LAND & CATTLE",
    "date":"2014-02-03 00:00:00",
    "lat":29.9599,
    "lng":-95.548,
    "cuisine":"BAR & GRILL",
    "status":"PASS",
    "score":1,
    "site":"TOTAL ESTABLISHMENT",
    "weight":3,
    "rats":"0",
    "bugs":"0",
    "slime":"0",
    "condemned":"0"
  },
  {
    "id":205501,
    "name":"WALGREEN #5390",
    "date":"2014-03-10 00:00:00",
    "lat":29.6878,
    "lng":-95.5702,
    "cuisine":"",
    "status":"PASS",
    "score":2,
    "site":"Store",
    "weight":5,
    "rats":"0",
    "bugs":"0",
    "slime":"0",
    "condemned":"0"
  },
  {
    "id":205506,
    "name":"WEST @ CHIMNEY ROCK CHEVRON",
    "date":"2013-09-25 00:00:00",
    "lat":29.7379,
    "lng":-95.4762,
    "cuisine":"",
    "status":"PASS",
    "score":1,
    "site":"Establishment",
    "weight":4,
    "rats":"0",
    "bugs":"0",
    "slime":"0",
    "condemned":"0"
  },
  {
    "id":205530,
    "name":"STARBUCKS COFFEE #6344",
    "date":"2014-03-25 00:00:00",
    "lat":29.7279,
    "lng":-95.4279,
    "cuisine":"BEVERAGES, ETC.",
    "status":"PASS",
    "score":1,
    "site":"Food Prep",
    "weight":1,
    "rats":"0",
    "bugs":"0",
    "slime":"0",
    "condemned":"0"
  },
  {
    "id":205539,
    "name":"RANDALL'S #1776",
    "date":"2014-03-24 00:00:00",
    "lat":30.051,
    "lng":-95.2445,
    "cuisine":"",
    "status":"FAIL",
    "score":4,
    "site":"TOTAL ESTABLISHMENT",
    "weight":18,
    "rats":"0",
    "bugs":"0",
    "slime":"0",
    "condemned":"0"
  },
  {
    "id":205541,
    "name":"OSTIONERIA HUETAMICH",
    "date":"2014-04-05 00:00:00",
    "lat":29.6889,
    "lng":-95.5536,
    "cuisine":"MEXICAN / HISPANIC",
    "status":"PASS",
    "score":1,
    "site":"KITCHEN",
    "weight":1,
    "rats":"0",
    "bugs":"0",
    "slime":"0",
    "condemned":"0"
  },
  {
    "id":205550,
    "name":"CHURCHES CHICKEN",
    "date":"2014-03-08 00:00:00",
    "lat":29.7038,
    "lng":-95.5851,
    "cuisine":"CHICKEN",
    "status":"PASS",
    "score":2,
    "site":"kitchen",
    "weight":8,
    "rats":"0",
    "bugs":"0",
    "slime":"1",
    "condemned":"0"
  },
  {
    "id":205551,
    "name":"KATZ DELI",
    "date":"2014-04-12 00:00:00",
    "lat":29.7446,
    "lng":-95.3896,
    "cuisine":"LOCAL / CONTINENTAL",
    "status":"PASS",
    "score":2,
    "site":"TOTAL ESTABLISHMENT",
    "weight":7,
    "rats":"0",
    "bugs":"0",
    "slime":"0",
    "condemned":"0"
  },
  {
    "id":205566,
    "name":"EL RANCHERO MEXICAN RESTAURANT",
    "date":"2013-11-04 00:00:00",
    "lat":30.0452,
    "lng":-95.2496,
    "cuisine":"",
    "status":"PASS",
    "score":1,
    "site":"TOTAL ESTABLISHMENT",
    "weight":4,
    "rats":"0",
    "bugs":"0",
    "slime":"0",
    "condemned":"0"
  },
  {
    "id":205574,
    "name":"HEB FOOD STORE #472",
    "date":"2013-11-13 00:00:00",
    "lat":29.7386,
    "lng":-95.4844,
    "cuisine":"",
    "status":"PASS",
    "score":2,
    "site":"Total Establishment",
    "weight":5,
    "rats":"0",
    "bugs":"0",
    "slime":"0",
    "condemned":"0"
  },
  {
    "id":205579,
    "name":"WINGS -N- THINGS",
    "date":"2014-04-08 00:00:00",
    "lat":29.7376,
    "lng":-95.4843,
    "cuisine":"CHICKEN",
    "status":"PASS",
    "score":1,
    "site":"KITCHEN",
    "weight":2,
    "rats":"0",
    "bugs":"0",
    "slime":"0",
    "condemned":"0"
  },
  {
    "id":205589,
    "name":"STARBUCKS COFFEE #6393",
    "date":"2013-07-25 00:00:00",
    "lat":29.8327,
    "lng":-95.4836,
    "cuisine":"BEVERAGES, ETC.",
    "status":"PASS",
    "score":1,
    "site":"ESTABLISHMENT",
    "weight":1,
    "rats":"0",
    "bugs":"0",
    "slime":"0",
    "condemned":"0"
  },
  {
    "id":205600,
    "name":"STARBUCKS COFFEE #6360",
    "date":"2013-12-20 00:00:00",
    "lat":29.7416,
    "lng":-95.461,
    "cuisine":"BEVERAGES, ETC.",
    "status":"PASS",
    "score":1,
    "site":"total establishment",
    "weight":2,
    "rats":"0",
    "bugs":"0",
    "slime":"0",
    "condemned":"0"
  },
  {
    "id":205601,
    "name":"JAMBA JUICE",
    "date":"2014-01-21 00:00:00",
    "lat":29.7416,
    "lng":-95.461,
    "cuisine":"BEVERAGES, ETC.",
    "status":"PASS",
    "score":1,
    "site":"KITCHEN",
    "weight":2,
    "rats":"0",
    "bugs":"0",
    "slime":"0",
    "condemned":"0"
  },
  {
    "id":205615,
    "name":"ZIMM'S",
    "date":"2014-04-11 00:00:00",
    "lat":29.7339,
    "lng":-95.3911,
    "cuisine":"",
    "status":"PASS",
    "score":1,
    "site":"0",
    "weight":3,
    "rats":"0",
    "bugs":"0",
    "slime":"0",
    "condemned":"0"
  },
  {
    "id":205617,
    "name":"CORPUS CHRISTI CATHOLIC CHURCH",
    "date":"2013-10-14 00:00:00",
    "lat":29.6747,
    "lng":-95.44,
    "cuisine":"",
    "status":"PASS",
    "score":1,
    "site":"TOTAL ESTABLISHMENT",
    "weight":4,
    "rats":"0",
    "bugs":"0",
    "slime":"0",
    "condemned":"0"
  },
  {
    "id":205620,
    "name":"HEB CENTRAL MARKET",
    "date":"2014-03-29 00:00:00",
    "lat":29.7418,
    "lng":-95.4422,
    "cuisine":"",
    "status":"FAIL",
    "score":4,
    "site":"Total Establishment",
    "weight":24,
    "rats":"0",
    "bugs":"0",
    "slime":"0",
    "condemned":"0"
  },
  {
    "id":205624,
    "name":"HOME PLATE BAR AND GRILL",
    "date":"2013-12-18 00:00:00",
    "lat":29.7556,
    "lng":-95.3552,
    "cuisine":"BAR & GRILL",
    "status":"PASS",
    "score":1,
    "site":"Kitchen",
    "weight":3,
    "rats":"0",
    "bugs":"0",
    "slime":"0",
    "condemned":"0"
  },
  {
    "id":206233,
    "name":"THE SPLENDOR",
    "date":"2013-08-05 00:00:00",
    "lat":29.9541,
    "lng":-95.5369,
    "cuisine":"BAR & GRILL",
    "status":"PASS",
    "score":1,
    "site":"TOTAL ESTABLISHMENT",
    "weight":3,
    "rats":"0",
    "bugs":"0",
    "slime":"0",
    "condemned":"0"
  },
  {
    "id":206234,
    "name":"IHOP #1910",
    "date":"2014-02-10 00:00:00",
    "lat":29.8287,
    "lng":-95.3802,
    "cuisine":"LOCAL / CONTINENTAL",
    "status":"PASS",
    "score":1,
    "site":"ESTABLISHMENT",
    "weight":2,
    "rats":"0",
    "bugs":"0",
    "slime":"0",
    "condemned":"0"
  },
  {
    "id":206242,
    "name":"KOLACHE FACTORY",
    "date":"2013-12-31 00:00:00",
    "lat":29.9592,
    "lng":-95.5463,
    "cuisine":"",
    "status":"PASS",
    "score":2,
    "site":"KITCHEN",
    "weight":8,
    "rats":"0",
    "bugs":"0",
    "slime":"0",
    "condemned":"0"
  },
  {
    "id":206463,
    "name":"TACOS PINEDA-SOUTH WEST COMISARIA",
    "date":"2014-02-18 00:00:00",
    "lat":29.7282,
    "lng":-95.4976,
    "cuisine":"",
    "status":"FAIL",
    "score":5,
    "site":"6375 Skyline Dr.Mon-Sat. (8A-5P)",
    "weight":29,
    "rats":"0",
    "bugs":"0",
    "slime":"0",
    "condemned":"0"
  },
  {
    "id":206547,
    "name":"MIKKI'S CAFE",
    "date":"2013-12-23 00:00:00",
    "lat":29.6535,
    "lng":-95.5638,
    "cuisine":"",
    "status":"PASS",
    "score":1,
    "site":"TOTAL ESTABLISHMENT",
    "weight":4,
    "rats":"0",
    "bugs":"0",
    "slime":"0",
    "condemned":"0"
  },
  {
    "id":206563,
    "name":"PANDA PATH",
    "date":"2014-03-03 00:00:00",
    "lat":29.8294,
    "lng":-95.5006,
    "cuisine":"",
    "status":"PASS",
    "score":1,
    "site":"TOTAL SITES",
    "weight":4,
    "rats":"0",
    "bugs":"0",
    "slime":"0",
    "condemned":"0"
  },
  {
    "id":206565,
    "name":"LILLY GROVE MISSIONARY BAPTIST CHURCH",
    "date":"2014-02-03 00:00:00",
    "lat":29.6921,
    "lng":-95.3699,
    "cuisine":"LOCAL / CONTINENTAL",
    "status":"PASS",
    "score":1,
    "site":"Total establishment",
    "weight":1,
    "rats":"0",
    "bugs":"0",
    "slime":"0",
    "condemned":"0"
  },
  {
    "id":206589,
    "name":"SMOOTHIE ISLAND JUICE BAR",
    "date":"2014-01-10 00:00:00",
    "lat":29.7631,
    "lng":-95.4798,
    "cuisine":"BURGERS, ETC.",
    "status":"PASS",
    "score":1,
    "site":"KITCHEN",
    "weight":3,
    "rats":"1",
    "bugs":"0",
    "slime":"0",
    "condemned":"0"
  },
  {
    "id":206611,
    "name":"RANDALL'S #1774",
    "date":"2013-12-27 00:00:00",
    "lat":29.8196,
    "lng":-95.466,
    "cuisine":"",
    "status":"PASS",
    "score":2,
    "site":"Total Establishment",
    "weight":5,
    "rats":"0",
    "bugs":"0",
    "slime":"0",
    "condemned":"0"
  },
  {
    "id":206632,
    "name":"CAR SPA",
    "date":"2013-10-02 00:00:00",
    "lat":29.7464,
    "lng":-95.3796,
    "cuisine":"BEVERAGES, ETC.",
    "status":"PASS",
    "score":1,
    "site":"Store",
    "weight":1,
    "rats":"0",
    "bugs":"0",
    "slime":"0",
    "condemned":"0"
  },
  {
    "id":206642,
    "name":"FAMILY DOLLAR #4513",
    "date":"2014-01-13 00:00:00",
    "lat":33.1318,
    "lng":-96.1031,
    "cuisine":"",
    "status":"PASS",
    "score":1,
    "site":"TOTAL ESTABLISHMENT",
    "weight":3,
    "rats":"0",
    "bugs":"0",
    "slime":"0",
    "condemned":"0"
  },
  {
    "id":206648,
    "name":"SUPER 8 MOTEL",
    "date":"2014-01-05 00:00:00",
    "lat":29.7682,
    "lng":-95.2132,
    "cuisine":"OTHER",
    "status":"PASS",
    "score":2,
    "site":"0",
    "weight":6,
    "rats":"0",
    "bugs":"0",
    "slime":"0",
    "condemned":"0"
  },
  {
    "id":206655,
    "name":"MARBLE SLAB CREAMERY",
    "date":"2014-02-19 00:00:00",
    "lat":29.7314,
    "lng":-95.4415,
    "cuisine":"DESSERTS",
    "status":"PASS",
    "score":2,
    "site":"Store",
    "weight":5,
    "rats":"0",
    "bugs":"0",
    "slime":"0",
    "condemned":"0"
  },
  {
    "id":206663,
    "name":"THE NICKEL SANDWICH GRILL",
    "date":"2013-12-30 00:00:00",
    "lat":29.7765,
    "lng":-95.3148,
    "cuisine":"BARBECUE",
    "status":"PASS",
    "score":2,
    "site":"kitchen",
    "weight":5,
    "rats":"0",
    "bugs":"0",
    "slime":"0",
    "condemned":"0"
  },
  {
    "id":206668,
    "name":"LITTLE BUDDY #4",
    "date":"2013-10-23 00:00:00",
    "lat":29.7802,
    "lng":-95.3824,
    "cuisine":"OTHER",
    "status":"PASS",
    "score":1,
    "site":"store",
    "weight":1,
    "rats":"0",
    "bugs":"0",
    "slime":"0",
    "condemned":"0"
  },
  {
    "id":206672,
    "name":"FRONTIER BBQ",
    "date":"2013-12-05 00:00:00",
    "lat":29.7586,
    "lng":-95.3658,
    "cuisine":"BARBECUE",
    "status":"PASS",
    "score":1,
    "site":"Total Establishment",
    "weight":3,
    "rats":"0",
    "bugs":"0",
    "slime":"0",
    "condemned":"0"
  },
  {
    "id":206676,
    "name":"KIM'S FOOD DELI",
    "date":"2013-08-08 00:00:00",
    "lat":29.7652,
    "lng":-95.3813,
    "cuisine":"DELI",
    "status":"PASS",
    "score":1,
    "site":"kitchen",
    "weight":3,
    "rats":"0",
    "bugs":"0",
    "slime":"0",
    "condemned":"0"
  },
  {
    "id":206695,
    "name":"FAMILY DOLLAR #4537",
    "date":"2014-01-21 00:00:00",
    "lat":29.6757,
    "lng":-95.2658,
    "cuisine":"",
    "status":"PASS",
    "score":1,
    "site":"0",
    "weight":2,
    "rats":"0",
    "bugs":"0",
    "slime":"0",
    "condemned":"0"
  },
  {
    "id":206699,
    "name":"WALGREEN #5709",
    "date":"2014-01-21 00:00:00",
    "lat":29.5573,
    "lng":-95.1226,
    "cuisine":"",
    "status":"PASS",
    "score":1,
    "site":"0",
    "weight":2,
    "rats":"0",
    "bugs":"0",
    "slime":"0",
    "condemned":"0"
  },
  {
    "id":206703,
    "name":"IBIZA FOOD & WINE BAR",
    "date":"2014-04-15 00:00:00",
    "lat":29.7472,
    "lng":-95.3765,
    "cuisine":"MEXICAN / HISPANIC",
    "status":"FAIL",
    "score":3,
    "site":"TOTAL FACILITY",
    "weight":9,
    "rats":"0",
    "bugs":"0",
    "slime":"0",
    "condemned":"0"
  },
  {
    "id":206707,
    "name":"LA MICHOACANA MEAT MARKET #12",
    "date":"2013-11-25 00:00:00",
    "lat":29.6923,
    "lng":-95.2989,
    "cuisine":"",
    "status":"PASS",
    "score":2,
    "site":"TOTAL ESTABLISHMENT",
    "weight":5,
    "rats":"0",
    "bugs":"0",
    "slime":"0",
    "condemned":"0"
  },
  {
    "id":206708,
    "name":"KROGER #385",
    "date":"2014-03-31 00:00:00",
    "lat":29.5593,
    "lng":-95.1245,
    "cuisine":"",
    "status":"FAIL",
    "score":4,
    "site":"TOTAL EST.",
    "weight":17,
    "rats":"0",
    "bugs":"0",
    "slime":"0",
    "condemned":"0"
  },
  {
    "id":206711,
    "name":"PHO 21",
    "date":"2014-04-07 00:00:00",
    "lat":29.5743,
    "lng":-95.1085,
    "cuisine":"VIETNAMESE",
    "status":"PASS",
    "score":1,
    "site":"TOTAL EST.",
    "weight":3,
    "rats":"0",
    "bugs":"0",
    "slime":"0",
    "condemned":"0"
  },
  {
    "id":206716,
    "name":"LOU'S CAFE/TEXAS HOBBY AUTO AUCTION",
    "date":"2013-07-09 00:00:00",
    "lat":29.6445,
    "lng":-95.3051,
    "cuisine":"",
    "status":"PASS",
    "score":2,
    "site":"KITCHEN",
    "weight":5,
    "rats":"0",
    "bugs":"0",
    "slime":"0",
    "condemned":"0"
  },
  {
    "id":206726,
    "name":"ROYAL OAKS GRILL",
    "date":"2014-02-06 00:00:00",
    "lat":29.7299,
    "lng":-95.5853,
    "cuisine":"LOCAL / CONTINENTAL",
    "status":"PASS",
    "score":1,
    "site":"TOTAL ESTABLISHMENT",
    "weight":4,
    "rats":"0",
    "bugs":"0",
    "slime":"0",
    "condemned":"0"
  },
  {
    "id":206729,
    "name":"LANDRY'S CORPORATE OFFICE TEST KITCHEN",
    "date":"2013-07-25 00:00:00",
    "lat":29.7536,
    "lng":-95.456,
    "cuisine":"LOCAL / CONTINENTAL",
    "status":"PASS",
    "score":1,
    "site":"TOTAL ESTABLISHMENT",
    "weight":2,
    "rats":"0",
    "bugs":"0",
    "slime":"0",
    "condemned":"0"
  },
  {
    "id":206732,
    "name":"MEAT PLANET",
    "date":"2013-10-24 00:00:00",
    "lat":29.7396,
    "lng":-95.2853,
    "cuisine":"",
    "status":"PASS",
    "score":2,
    "site":"0",
    "weight":6,
    "rats":"0",
    "bugs":"0",
    "slime":"0",
    "condemned":"0"
  },
  {
    "id":206734,
    "name":"GUADALAJARA HACIENDA",
    "date":"2014-03-24 00:00:00",
    "lat":29.7839,
    "lng":-95.5355,
    "cuisine":"MEXICAN / HISPANIC",
    "status":"FAIL",
    "score":3,
    "site":"Establishment",
    "weight":9,
    "rats":"0",
    "bugs":"0",
    "slime":"0",
    "condemned":"0"
  },
  {
    "id":206735,
    "name":"GEORGE'S PIZZERIA/ITALIAN CUIS",
    "date":"2013-12-03 00:00:00",
    "lat":29.6852,
    "lng":-95.2942,
    "cuisine":"ITALIAN",
    "status":"PASS",
    "score":1,
    "site":"TOTAL ESTABLISHMENT",
    "weight":1,
    "rats":"0",
    "bugs":"0",
    "slime":"0",
    "condemned":"0"
  },
  {
    "id":206748,
    "name":"TAQUERIA ARANDAS #12",
    "date":"2013-07-11 00:00:00",
    "lat":29.6428,
    "lng":-95.2444,
    "cuisine":"MEXICAN / HISPANIC",
    "status":"PASS",
    "score":1,
    "site":"TOTAL EST.",
    "weight":1,
    "rats":"0",
    "bugs":"0",
    "slime":"0",
    "condemned":"0"
  },
  {
    "id":206756,
    "name":"PAPPAS BURGER",
    "date":"2013-07-10 00:00:00",
    "lat":29.7379,
    "lng":-95.4811,
    "cuisine":"BURGERS, ETC.",
    "status":"PASS",
    "score":1,
    "site":"TOTAL SITES",
    "weight":1,
    "rats":"0",
    "bugs":"0",
    "slime":"0",
    "condemned":"0"
  },
  {
    "id":206759,
    "name":"STARBUCKS COFFEE #6426",
    "date":"2014-01-16 00:00:00",
    "lat":29.5514,
    "lng":-95.1256,
    "cuisine":"BEVERAGES, ETC.",
    "status":"PASS",
    "score":2,
    "site":"SERVICE AREA",
    "weight":5,
    "rats":"0",
    "bugs":"0",
    "slime":"0",
    "condemned":"0"
  },
  {
    "id":206760,
    "name":"DOUBLE NINE GINSENG HERB",
    "date":"2014-01-13 00:00:00",
    "lat":29.7449,
    "lng":-95.3596,
    "cuisine":"",
    "status":"PASS",
    "score":1,
    "site":"0",
    "weight":2,
    "rats":"0",
    "bugs":"0",
    "slime":"0",
    "condemned":"0"
  },
  {
    "id":206762,
    "name":"FIRST CLASS CHILD DEV. CENTER",
    "date":"2013-08-06 00:00:00",
    "lat":29.5825,
    "lng":-95.1522,
    "cuisine":"",
    "status":"PASS",
    "score":1,
    "site":"0",
    "weight":4,
    "rats":"0",
    "bugs":"0",
    "slime":"0",
    "condemned":"0"
  },
  {
    "id":206864,
    "name":"COUNTRY INN & SUITES",
    "date":"2014-04-11 00:00:00",
    "lat":29.943,
    "lng":-95.3318,
    "cuisine":"",
    "status":"PASS",
    "score":1,
    "site":"KITCHEN",
    "weight":3,
    "rats":"0",
    "bugs":"0",
    "slime":"0",
    "condemned":"0"
  },
  {
    "id":206875,
    "name":"WINCHESTER INN & SUITES",
    "date":"2013-07-22 00:00:00",
    "lat":29.9471,
    "lng":-95.2932,
    "cuisine":"",
    "status":"PASS",
    "score":1,
    "site":"TOTAL ESTABLISHMENT",
    "weight":1,
    "rats":"0",
    "bugs":"0",
    "slime":"0",
    "condemned":"0"
  },
  {
    "id":206884,
    "name":"CHIPOTLE MEXICAN GRILL # 163",
    "date":"2014-02-24 00:00:00",
    "lat":29.9641,
    "lng":-95.5428,
    "cuisine":"MEXICAN / HISPANIC",
    "status":"PASS",
    "score":3,
    "site":"KITCHEN",
    "weight":16,
    "rats":"0",
    "bugs":"0",
    "slime":"0",
    "condemned":"0"
  },
  {
    "id":206890,
    "name":"STARBUCKS COFFEE #6377",
    "date":"2013-09-30 00:00:00",
    "lat":29.959,
    "lng":-95.546,
    "cuisine":"BEVERAGES, ETC.",
    "status":"PASS",
    "score":1,
    "site":"KITCHEN",
    "weight":4,
    "rats":"0",
    "bugs":"0",
    "slime":"0",
    "condemned":"0"
  },
  {
    "id":206923,
    "name":"TAQUERIA BUEY Y VACA(INSIDE THE FIESTA )",
    "date":"2014-01-29 00:00:00",
    "lat":29.916,
    "lng":-95.4053,
    "cuisine":"",
    "status":"PASS",
    "score":1,
    "site":"TAQUERIA",
    "weight":1,
    "rats":"0",
    "bugs":"0",
    "slime":"0",
    "condemned":"0"
  },
  {
    "id":206929,
    "name":"MATAMOROS MEAT MARKET",
    "date":"2013-12-17 00:00:00",
    "lat":29.8047,
    "lng":-95.361,
    "cuisine":"",
    "status":"PASS",
    "score":1,
    "site":"TOTAL EST.",
    "weight":1,
    "rats":"0",
    "bugs":"0",
    "slime":"0",
    "condemned":"0"
  },
  {
    "id":206932,
    "name":"MCDONALD'S #15212",
    "date":"2014-01-14 00:00:00",
    "lat":30.0496,
    "lng":-95.1856,
    "cuisine":"BURGERS, ETC.",
    "status":"PASS",
    "score":1,
    "site":"TOTAL ESTABLISHMENT",
    "weight":4,
    "rats":"0",
    "bugs":"0",
    "slime":"0",
    "condemned":"0"
  },
  {
    "id":206946,
    "name":"TEOTIHUACAN MEXICAN CAFE",
    "date":"2014-02-11 00:00:00",
    "lat":29.799,
    "lng":-95.3819,
    "cuisine":"MEXICAN / HISPANIC",
    "status":"PASS",
    "score":2,
    "site":"Total Establishment",
    "weight":8,
    "rats":"0",
    "bugs":"0",
    "slime":"0",
    "condemned":"0"
  },
  {
    "id":206966,
    "name":"YATTI'S GRILL",
    "date":"2013-10-28 00:00:00",
    "lat":29.8214,
    "lng":-95.3965,
    "cuisine":"BURGERS, ETC.",
    "status":"PASS",
    "score":2,
    "site":"KITCHEN",
    "weight":5,
    "rats":"0",
    "bugs":"0",
    "slime":"0",
    "condemned":"0"
  },
  {
    "id":206978,
    "name":"SUBWAY SANDWICH",
    "date":"2013-09-10 00:00:00",
    "lat":29.7737,
    "lng":-95.1866,
    "cuisine":"SANDWICHES",
    "status":"PASS",
    "score":1,
    "site":"Kitchen",
    "weight":2,
    "rats":"0",
    "bugs":"0",
    "slime":"0",
    "condemned":"0"
  },
  {
    "id":206991,
    "name":"HUMBLE BEGINNERS DAY CARE",
    "date":"2014-04-07 00:00:00",
    "lat":29.7946,
    "lng":-95.331,
    "cuisine":"",
    "status":"PASS",
    "score":1,
    "site":"0",
    "weight":2,
    "rats":"0",
    "bugs":"0",
    "slime":"0",
    "condemned":"0"
  },
  {
    "id":207200,
    "name":"MCCORMICK & SCHMICK'S",
    "date":"2014-03-21 00:00:00",
    "lat":29.7565,
    "lng":-95.4576,
    "cuisine":"SEAFOOD",
    "status":"FAIL",
    "score":3,
    "site":"Total Establishment",
    "weight":9,
    "rats":"0",
    "bugs":"0",
    "slime":"0",
    "condemned":"0"
  },
  {
    "id":207207,
    "name":"TAQUERIA TEPATITLAN #13",
    "date":"2014-03-11 00:00:00",
    "lat":29.7747,
    "lng":-95.2175,
    "cuisine":"MEXICAN / HISPANIC",
    "status":"FAIL",
    "score":3,
    "site":"Kitchen",
    "weight":11,
    "rats":"0",
    "bugs":"0",
    "slime":"0",
    "condemned":"0"
  },
  {
    "id":207220,
    "name":"QIN DYNASTY",
    "date":"2013-12-02 00:00:00",
    "lat":29.7279,
    "lng":-95.4279,
    "cuisine":"CHINESE",
    "status":"PASS",
    "score":1,
    "site":"TOTAL ESTABLISHMENT",
    "weight":4,
    "rats":"0",
    "bugs":"0",
    "slime":"0",
    "condemned":"0"
  },
  {
    "id":207604,
    "name":"FREEDOM ACADEMY DAY CARE",
    "date":"2014-03-10 00:00:00",
    "lat":29.7969,
    "lng":-95.361,
    "cuisine":"",
    "status":"PASS",
    "score":1,
    "site":"Total Establishment",
    "weight":1,
    "rats":"0",
    "bugs":"0",
    "slime":"0",
    "condemned":"0"
  },
  {
    "id":207621,
    "name":"ANTOINE CHEVRON",
    "date":"2014-04-02 00:00:00",
    "lat":29.8486,
    "lng":-95.4734,
    "cuisine":"BEVERAGES, ETC.",
    "status":"PASS",
    "score":2,
    "site":"GROCERY",
    "weight":6,
    "rats":"0",
    "bugs":"0",
    "slime":"0",
    "condemned":"0"
  },
  {
    "id":207627,
    "name":"PANADERIA Y PASTELERIA RAMOS",
    "date":"2013-10-01 00:00:00",
    "lat":29.9193,
    "lng":-95.4064,
    "cuisine":"",
    "status":"PASS",
    "score":3,
    "site":"FACILITY",
    "weight":12,
    "rats":"0",
    "bugs":"0",
    "slime":"0",
    "condemned":"0"
  },
  {
    "id":207642,
    "name":"ALDINE FOOD STORE",
    "date":"2014-02-27 00:00:00",
    "lat":29.9317,
    "lng":-95.4025,
    "cuisine":"",
    "status":"PASS",
    "score":2,
    "site":"TOTAL ESTABLISHMENT",
    "weight":6,
    "rats":"0",
    "bugs":"0",
    "slime":"0",
    "condemned":"0"
  },
  {
    "id":207643,
    "name":"SAM'S CLUB # 4721",
    "date":"2013-08-16 00:00:00",
    "lat":29.962,
    "lng":-95.5464,
    "cuisine":"",
    "status":"PASS",
    "score":1,
    "site":"GROCERY/PRODUCE/WAREHOUSE",
    "weight":1,
    "rats":"0",
    "bugs":"0",
    "slime":"0",
    "condemned":"0"
  },
  {
    "id":207650,
    "name":"VINH-HOA CHINESE/VIETNAMESE RT",
    "date":"2014-03-06 00:00:00",
    "lat":29.705,
    "lng":-95.5508,
    "cuisine":"VIETNAMESE",
    "status":"FAIL",
    "score":3,
    "site":"KITCHEN",
    "weight":9,
    "rats":"0",
    "bugs":"0",
    "slime":"0",
    "condemned":"0"
  },
  {
    "id":207663,
    "name":"THE SEAFOOD CENTER",
    "date":"2013-12-28 00:00:00",
    "lat":29.8365,
    "lng":-95.302,
    "cuisine":"",
    "status":"PASS",
    "score":3,
    "site":"Kitchen",
    "weight":15,
    "rats":"0",
    "bugs":"0",
    "slime":"0",
    "condemned":"0"
  },
  {
    "id":207990,
    "name":"OISHII JAPANESE RESTAURANT",
    "date":"2014-03-28 00:00:00",
    "lat":29.7328,
    "lng":-95.4369,
    "cuisine":"JAPANESE",
    "status":"PASS",
    "score":2,
    "site":"TOTAL EST.",
    "weight":5,
    "rats":"0",
    "bugs":"0",
    "slime":"0",
    "condemned":"0"
  },
  {
    "id":208015,
    "name":"SMOOTHIE KING",
    "date":"2014-02-03 00:00:00",
    "lat":29.7839,
    "lng":-95.5487,
    "cuisine":"BEVERAGES, ETC.",
    "status":"PASS",
    "score":3,
    "site":"Restaurant",
    "weight":13,
    "rats":"0",
    "bugs":"1",
    "slime":"0",
    "condemned":"0"
  },
  {
    "id":208020,
    "name":"LA CHAMACAS NIGHT CLUB",
    "date":"2014-02-19 00:00:00",
    "lat":29.6788,
    "lng":-95.317,
    "cuisine":"",
    "status":"PASS",
    "score":1,
    "site":"TOTAL ESTABLISHMENT",
    "weight":1,
    "rats":"0",
    "bugs":"0",
    "slime":"0",
    "condemned":"0"
  },
  {
    "id":208037,
    "name":"FREEBIRDS WORLD BURRITO",
    "date":"2014-01-31 00:00:00",
    "lat":29.7326,
    "lng":-95.4128,
    "cuisine":"MEXICAN / HISPANIC",
    "status":"PASS",
    "score":1,
    "site":"TOTAL ESTABLISHMENT",
    "weight":3,
    "rats":"0",
    "bugs":"0",
    "slime":"0",
    "condemned":"0"
  },
  {
    "id":208050,
    "name":"BRIARMEADOW CHARTER SCHOOL",
    "date":"2013-09-25 00:00:00",
    "lat":29.7261,
    "lng":-95.514,
    "cuisine":"",
    "status":"PASS",
    "score":2,
    "site":"Total Establishment",
    "weight":5,
    "rats":"0",
    "bugs":"0",
    "slime":"0",
    "condemned":"0"
  },
  {
    "id":208051,
    "name":"DENNY'S #7685",
    "date":"2014-03-20 00:00:00",
    "lat":29.6893,
    "lng":-95.5292,
    "cuisine":"",
    "status":"FAIL",
    "score":3,
    "site":"KITCHEN",
    "weight":16,
    "rats":"0",
    "bugs":"0",
    "slime":"0",
    "condemned":"0"
  },
  {
    "id":208290,
    "name":"SAM'S CLUB # 4712",
    "date":"2013-11-19 00:00:00",
    "lat":29.7851,
    "lng":-95.5567,
    "cuisine":"",
    "status":"PASS",
    "score":1,
    "site":"DELI / ROTISSERIE CHECHEN",
    "weight":1,
    "rats":"0",
    "bugs":"0",
    "slime":"0",
    "condemned":"0"
  },
  {
    "id":208291,
    "name":"HEB PDC",
    "date":"2013-08-08 00:00:00",
    "lat":29.8324,
    "lng":-95.5401,
    "cuisine":"",
    "status":"PASS",
    "score":1,
    "site":"0",
    "weight":1,
    "rats":"0",
    "bugs":"0",
    "slime":"0",
    "condemned":"0"
  },
  {
    "id":208292,
    "name":"HALAL WOK CHINESE CUISINE",
    "date":"2013-11-22 00:00:00",
    "lat":29.7205,
    "lng":-95.5011,
    "cuisine":"",
    "status":"PASS",
    "score":1,
    "site":"TOTAL ESTABLISHMENT",
    "weight":4,
    "rats":"0",
    "bugs":"0",
    "slime":"0",
    "condemned":"0"
  },
  {
    "id":208293,
    "name":"COSTCO WHOLESALE # 680",
    "date":"2013-11-13 00:00:00",
    "lat":29.7877,
    "lng":-95.5313,
    "cuisine":"",
    "status":"PASS",
    "score":1,
    "site":"GROCERY/PRODUCE",
    "weight":1,
    "rats":"0",
    "bugs":"0",
    "slime":"0",
    "condemned":"0"
  },
  {
    "id":208298,
    "name":"HIDO JAPANESE GRILL & SUSHI",
    "date":"2013-09-17 00:00:00",
    "lat":29.9559,
    "lng":-95.5423,
    "cuisine":"JAPANESE",
    "status":"FAIL",
    "score":3,
    "site":"TOTAL ESTABLISHMENT",
    "weight":15,
    "rats":"0",
    "bugs":"0",
    "slime":"0",
    "condemned":"0"
  },
  {
    "id":208299,
    "name":"PARISIAN BAKERY II & CAFE",
    "date":"2014-04-13 00:00:00",
    "lat":29.6892,
    "lng":-95.5706,
    "cuisine":"",
    "status":"PASS",
    "score":3,
    "site":"TOTAL ESTABLISHMENT",
    "weight":9,
    "rats":"0",
    "bugs":"0",
    "slime":"0",
    "condemned":"0"
  },
  {
    "id":208300,
    "name":"STARBUCKS COFFEE #6401",
    "date":"2014-03-17 00:00:00",
    "lat":29.7726,
    "lng":-95.5713,
    "cuisine":"BEVERAGES, ETC.",
    "status":"PASS",
    "score":1,
    "site":"STORE",
    "weight":4,
    "rats":"0",
    "bugs":"1",
    "slime":"0",
    "condemned":"0"
  },
  {
    "id":208318,
    "name":"OCEAN PALACE CHINESE REST.",
    "date":"2014-02-04 00:00:00",
    "lat":29.7037,
    "lng":-95.5795,
    "cuisine":"CHINESE",
    "status":"FAIL",
    "score":3,
    "site":"TOTAL ESTABLISHMENT",
    "weight":16,
    "rats":"0",
    "bugs":"0",
    "slime":"0",
    "condemned":"0"
  },
  {
    "id":208334,
    "name":"DOMINO'S PIZZA",
    "date":"2014-03-21 00:00:00",
    "lat":29.5928,
    "lng":-95.4683,
    "cuisine":"PIZZA",
    "status":"PASS",
    "score":1,
    "site":"KITCHEN",
    "weight":4,
    "rats":"0",
    "bugs":"0",
    "slime":"0",
    "condemned":"0"
  },
  {
    "id":208344,
    "name":"MCDONALD'S #26315",
    "date":"2013-10-03 00:00:00",
    "lat":29.7575,
    "lng":-95.6254,
    "cuisine":"BURGERS, ETC.",
    "status":"PASS",
    "score":1,
    "site":"Kitchen",
    "weight":2,
    "rats":"0",
    "bugs":"0",
    "slime":"0",
    "condemned":"0"
  },
  {
    "id":208349,
    "name":"ROCKFISH SEAFOOD GRILL",
    "date":"2014-04-15 00:00:00",
    "lat":29.7364,
    "lng":-95.5876,
    "cuisine":"SEAFOOD",
    "status":"PASS",
    "score":2,
    "site":"Kitchen",
    "weight":5,
    "rats":"0",
    "bugs":"0",
    "slime":"0",
    "condemned":"0"
  },
  {
    "id":208351,
    "name":"HONG KONG FOOD STREET",
    "date":"2014-03-24 00:00:00",
    "lat":29.7048,
    "lng":-95.5528,
    "cuisine":"",
    "status":"PASS",
    "score":2,
    "site":"TOTAL ESTABLISHMENT",
    "weight":7,
    "rats":"0",
    "bugs":"0",
    "slime":"0",
    "condemned":"0"
  },
  {
    "id":208356,
    "name":"JAMBA JUICE",
    "date":"2014-03-07 00:00:00",
    "lat":29.7364,
    "lng":-95.5876,
    "cuisine":"BEVERAGES, ETC.",
    "status":"PASS",
    "score":1,
    "site":"Kitchen",
    "weight":2,
    "rats":"0",
    "bugs":"0",
    "slime":"0",
    "condemned":"0"
  },
  {
    "id":208357,
    "name":"GNC",
    "date":"2014-02-13 00:00:00",
    "lat":29.7364,
    "lng":-95.5876,
    "cuisine":"",
    "status":"PASS",
    "score":1,
    "site":"Store",
    "weight":1,
    "rats":"0",
    "bugs":"0",
    "slime":"0",
    "condemned":"0"
  },
  {
    "id":208438,
    "name":"COMFORT SUITES",
    "date":"2014-03-20 00:00:00",
    "lat":29.832,
    "lng":-95.5665,
    "cuisine":"LOCAL / CONTINENTAL",
    "status":"PASS",
    "score":1,
    "site":"TOTAL SITES",
    "weight":2,
    "rats":"0",
    "bugs":"0",
    "slime":"0",
    "condemned":"0"
  },
  {
    "id":208439,
    "name":"SUBWAY SANDWICHES",
    "date":"2014-01-23 00:00:00",
    "lat":29.7286,
    "lng":-95.4385,
    "cuisine":"SANDWICHES",
    "status":"PASS",
    "score":1,
    "site":"Store",
    "weight":1,
    "rats":"0",
    "bugs":"0",
    "slime":"0",
    "condemned":"0"
  },
  {
    "id":208441,
    "name":"RUSSIAN GENERAL STORE",
    "date":"2013-09-18 00:00:00",
    "lat":29.6769,
    "lng":-95.4935,
    "cuisine":"",
    "status":"PASS",
    "score":1,
    "site":"Total Establishment",
    "weight":1,
    "rats":"0",
    "bugs":"0",
    "slime":"0",
    "condemned":"0"
  },
  {
    "id":208459,
    "name":"ELEANOR TINSLEY ELEMENTARY",
    "date":"2013-10-15 00:00:00",
    "lat":29.6594,
    "lng":-95.5011,
    "cuisine":"",
    "status":"PASS",
    "score":2,
    "site":"TOTAL ESTABLISHMENT",
    "weight":8,
    "rats":"0",
    "bugs":"0",
    "slime":"1",
    "condemned":"0"
  },
  {
    "id":208466,
    "name":"PONZO'S ITALIAN FOOD",
    "date":"2013-12-17 00:00:00",
    "lat":29.7489,
    "lng":-95.3789,
    "cuisine":"PIZZA",
    "status":"PASS",
    "score":1,
    "site":"TOTAL ESTABLISHMENT",
    "weight":1,
    "rats":"0",
    "bugs":"0",
    "slime":"0",
    "condemned":"0"
  },
  {
    "id":208485,
    "name":"BIRRAPORETTI'S",
    "date":"2013-10-14 00:00:00",
    "lat":29.7622,
    "lng":-95.3646,
    "cuisine":"ITALIAN",
    "status":"FAIL",
    "score":3,
    "site":"Total Establishment",
    "weight":12,
    "rats":"0",
    "bugs":"0",
    "slime":"0",
    "condemned":"0"
  },
  {
    "id":208494,
    "name":"THE VELVET MELVIN PUB",
    "date":"2013-12-27 00:00:00",
    "lat":29.7339,
    "lng":-95.4265,
    "cuisine":"",
    "status":"PASS",
    "score":3,
    "site":"Kitchen",
    "weight":11,
    "rats":"0",
    "bugs":"0",
    "slime":"0",
    "condemned":"0"
  },
  {
    "id":208741,
    "name":"UP LIQUOR",
    "date":"2014-01-09 00:00:00",
    "lat":29.8282,
    "lng":-95.4331,
    "cuisine":"",
    "status":"PASS",
    "score":1,
    "site":"0",
    "weight":4,
    "rats":"0",
    "bugs":"0",
    "slime":"0",
    "condemned":"0"
  },
  {
    "id":208745,
    "name":"SBARRO",
    "date":"2013-12-31 00:00:00",
    "lat":29.7787,
    "lng":-95.5399,
    "cuisine":"ITALIAN",
    "status":"PASS",
    "score":2,
    "site":"Restaurant",
    "weight":5,
    "rats":"0",
    "bugs":"0",
    "slime":"0",
    "condemned":"0"
  },
  {
    "id":208747,
    "name":"KENTUCKY FRIED CHICKEN",
    "date":"2013-07-16 00:00:00",
    "lat":29.8131,
    "lng":-95.429,
    "cuisine":"CHICKEN",
    "status":"PASS",
    "score":3,
    "site":"KITCHEN",
    "weight":9,
    "rats":"0",
    "bugs":"0",
    "slime":"0",
    "condemned":"0"
  },
  {
    "id":208763,
    "name":"EL INVASOR NITE CLUB",
    "date":"2014-03-11 00:00:00",
    "lat":29.7847,
    "lng":-95.3514,
    "cuisine":"",
    "status":"PASS",
    "score":2,
    "site":"bar",
    "weight":6,
    "rats":"0",
    "bugs":"0",
    "slime":"0",
    "condemned":"0"
  },
  {
    "id":208765,
    "name":"HOLIDAY INN EXPRESS HOTEL",
    "date":"2014-02-21 00:00:00",
    "lat":29.7837,
    "lng":-95.4667,
    "cuisine":"",
    "status":"PASS",
    "score":2,
    "site":"TOTAL SITES",
    "weight":5,
    "rats":"0",
    "bugs":"0",
    "slime":"0",
    "condemned":"0"
  },
  {
    "id":208900,
    "name":"WAFFLE HOUSE #1460",
    "date":"2014-01-02 00:00:00",
    "lat":29.6276,
    "lng":-95.2349,
    "cuisine":"BREAKFAST",
    "status":"PASS",
    "score":1,
    "site":"TOTAL ESTABLISHMENT",
    "weight":2,
    "rats":"0",
    "bugs":"0",
    "slime":"0",
    "condemned":"0"
  },
  {
    "id":208905,
    "name":"FAMILY DOLLAR #4775",
    "date":"2014-01-14 00:00:00",
    "lat":29.7019,
    "lng":-95.3489,
    "cuisine":"",
    "status":"PASS",
    "score":1,
    "site":"TOTAL ESTABLISHMENT",
    "weight":1,
    "rats":"0",
    "bugs":"0",
    "slime":"0",
    "condemned":"0"
  },
  {
    "id":208906,
    "name":"BROTHERS PRODUCE",
    "date":"2013-12-26 00:00:00",
    "lat":29.7084,
    "lng":-95.3273,
    "cuisine":"",
    "status":"PASS",
    "score":1,
    "site":"0",
    "weight":1,
    "rats":"0",
    "bugs":"0",
    "slime":"0",
    "condemned":"0"
  },
  {
    "id":208907,
    "name":"STARBUCKS COFFEE #6409",
    "date":"2014-02-17 00:00:00",
    "lat":29.7574,
    "lng":-95.3684,
    "cuisine":"BEVERAGES, ETC.",
    "status":"PASS",
    "score":1,
    "site":"Kitchen",
    "weight":3,
    "rats":"0",
    "bugs":"0",
    "slime":"0",
    "condemned":"0"
  },
  {
    "id":208912,
    "name":"QWIK STOP",
    "date":"2013-08-21 00:00:00",
    "lat":29.6909,
    "lng":-95.2349,
    "cuisine":"",
    "status":"PASS",
    "score":1,
    "site":"Store",
    "weight":3,
    "rats":"0",
    "bugs":"0",
    "slime":"0",
    "condemned":"0"
  },
  {
    "id":208929,
    "name":"WALGREENS #6606",
    "date":"2013-10-24 00:00:00",
    "lat":29.6511,
    "lng":-95.2096,
    "cuisine":"",
    "status":"PASS",
    "score":1,
    "site":"0",
    "weight":3,
    "rats":"0",
    "bugs":"0",
    "slime":"0",
    "condemned":"0"
  },
  {
    "id":208933,
    "name":"WAL-MART # 1062",
    "date":"2013-12-13 00:00:00",
    "lat":29.5553,
    "lng":-95.151,
    "cuisine":"",
    "status":"PASS",
    "score":1,
    "site":"TOTAL EST.",
    "weight":4,
    "rats":"0",
    "bugs":"0",
    "slime":"0",
    "condemned":"0"
  },
  {
    "id":208939,
    "name":"TEXAS CHILDREN'S CC FOOD COURT",
    "date":"2014-04-08 00:00:00",
    "lat":29.7072,
    "lng":-95.4027,
    "cuisine":"",
    "status":"FAIL",
    "score":4,
    "site":"TOTAL ESTABLISHMENT",
    "weight":17,
    "rats":"0",
    "bugs":"0",
    "slime":"0",
    "condemned":"0"
  },
  {
    "id":208950,
    "name":"MED CENTER SHELL",
    "date":"2014-03-03 00:00:00",
    "lat":29.6989,
    "lng":-95.3865,
    "cuisine":"",
    "status":"PASS",
    "score":1,
    "site":"STORE",
    "weight":4,
    "rats":"0",
    "bugs":"0",
    "slime":"0",
    "condemned":"0"
  },
  {
    "id":208951,
    "name":"WHATABURGER #778",
    "date":"2013-12-10 00:00:00",
    "lat":29.5552,
    "lng":-95.1563,
    "cuisine":"BURGERS, ETC.",
    "status":"PASS",
    "score":1,
    "site":"KITCHEN",
    "weight":2,
    "rats":"0",
    "bugs":"0",
    "slime":"0",
    "condemned":"0"
  },
  {
    "id":208963,
    "name":"SYLVIA'S ENCHILADA KITCHEN",
    "date":"2013-12-10 00:00:00",
    "lat":29.7361,
    "lng":-95.6077,
    "cuisine":"MEXICAN / HISPANIC",
    "status":"PASS",
    "score":1,
    "site":"Kitchen",
    "weight":3,
    "rats":"0",
    "bugs":"0",
    "slime":"0",
    "condemned":"0"
  },
  {
    "id":209123,
    "name":"KFC #Y343131",
    "date":"2014-02-28 00:00:00",
    "lat":29.8113,
    "lng":-95.3994,
    "cuisine":"CHICKEN",
    "status":"PASS",
    "score":2,
    "site":"kutchen",
    "weight":5,
    "rats":"0",
    "bugs":"0",
    "slime":"0",
    "condemned":"0"
  },
  {
    "id":209128,
    "name":"FAMILY DOLLAR #4849",
    "date":"2013-08-16 00:00:00",
    "lat":29.8029,
    "lng":-95.4902,
    "cuisine":"",
    "status":"PASS",
    "score":1,
    "site":"0",
    "weight":3,
    "rats":"0",
    "bugs":"0",
    "slime":"0",
    "condemned":"0"
  },
  {
    "id":209135,
    "name":"WALGREEN'S #6857",
    "date":"2014-02-19 00:00:00",
    "lat":29.7685,
    "lng":-95.3919,
    "cuisine":"",
    "status":"PASS",
    "score":1,
    "site":"Store",
    "weight":1,
    "rats":"0",
    "bugs":"0",
    "slime":"0",
    "condemned":"0"
  },
  {
    "id":209145,
    "name":"MELBA'S COUNTRY KITCHEN",
    "date":"2013-10-22 00:00:00",
    "lat":29.819,
    "lng":-95.2419,
    "cuisine":"LOCAL / CONTINENTAL",
    "status":"PASS",
    "score":1,
    "site":"TOTAL ESTABLISHMENT",
    "weight":1,
    "rats":"0",
    "bugs":"0",
    "slime":"0",
    "condemned":"0"
  },
  {
    "id":209154,
    "name":"MACY'S",
    "date":"2014-02-17 00:00:00",
    "lat":29.7792,
    "lng":-95.5445,
    "cuisine":"",
    "status":"PASS",
    "score":1,
    "site":"0",
    "weight":1,
    "rats":"0",
    "bugs":"0",
    "slime":"0",
    "condemned":"0"
  },
  {
    "id":209159,
    "name":"SYLVAN RODRIGUEZ ELEM SCHOOL",
    "date":"2014-03-13 00:00:00",
    "lat":29.7186,
    "lng":-95.4765,
    "cuisine":"",
    "status":"PASS",
    "score":1,
    "site":"Kitchen",
    "weight":2,
    "rats":"0",
    "bugs":"0",
    "slime":"0",
    "condemned":"0"
  },
  {
    "id":209164,
    "name":"THE HILTON GARDEN INN",
    "date":"2013-12-10 00:00:00",
    "lat":29.9418,
    "lng":-95.3313,
    "cuisine":"",
    "status":"PASS",
    "score":1,
    "site":"TOTAL ESTABLISHMENT",
    "weight":3,
    "rats":"0",
    "bugs":"0",
    "slime":"0",
    "condemned":"0"
  },
  {
    "id":209167,
    "name":"TELOLOAPAN MEAT MARKET",
    "date":"2013-08-08 00:00:00",
    "lat":29.811,
    "lng":-95.4991,
    "cuisine":"",
    "status":"PASS",
    "score":1,
    "site":"BAKERY",
    "weight":1,
    "rats":"0",
    "bugs":"0",
    "slime":"0",
    "condemned":"0"
  },
  {
    "id":209170,
    "name":"REYES NOPALITOS",
    "date":"2014-03-11 00:00:00",
    "lat":29.8117,
    "lng":-95.3821,
    "cuisine":"",
    "status":"PASS",
    "score":1,
    "site":"store",
    "weight":2,
    "rats":"0",
    "bugs":"0",
    "slime":"0",
    "condemned":"0"
  },
  {
    "id":209177,
    "name":"WALGREENS #6702",
    "date":"2014-01-22 00:00:00",
    "lat":29.82,
    "lng":-95.4595,
    "cuisine":"",
    "status":"PASS",
    "score":1,
    "site":"0",
    "weight":1,
    "rats":"0",
    "bugs":"0",
    "slime":"0",
    "condemned":"0"
  },
  {
    "id":209429,
    "name":"JASON'S DELI - DTH",
    "date":"2014-03-28 00:00:00",
    "lat":29.7574,
    "lng":-95.3658,
    "cuisine":"DELI",
    "status":"PASS",
    "score":1,
    "site":"kitchen",
    "weight":2,
    "rats":"0",
    "bugs":"0",
    "slime":"0",
    "condemned":"0"
  },
  {
    "id":209435,
    "name":"THE BREAKFAST KLUB",
    "date":"2014-02-24 00:00:00",
    "lat":29.7389,
    "lng":-95.3805,
    "cuisine":"BREAKFAST",
    "status":"PASS",
    "score":2,
    "site":"Kitchen",
    "weight":6,
    "rats":"0",
    "bugs":"0",
    "slime":"0",
    "condemned":"0"
  },
  {
    "id":209436,
    "name":"AMERICA'S INN",
    "date":"2013-11-14 00:00:00",
    "lat":29.6889,
    "lng":-95.5295,
    "cuisine":"",
    "status":"PASS",
    "score":1,
    "site":"KITCHEN",
    "weight":3,
    "rats":"0",
    "bugs":"0",
    "slime":"0",
    "condemned":"0"
  },
  {
    "id":209437,
    "name":"AMERICA'S INN",
    "date":"2013-09-19 00:00:00",
    "lat":29.6646,
    "lng":-95.5548,
    "cuisine":"",
    "status":"PASS",
    "score":1,
    "site":"Breakfast Room",
    "weight":4,
    "rats":"0",
    "bugs":"0",
    "slime":"0",
    "condemned":"0"
  },
  {
    "id":209448,
    "name":"ENERGIZED FOR EXCELLENCE",
    "date":"2014-03-28 00:00:00",
    "lat":29.6964,
    "lng":-95.4898,
    "cuisine":"",
    "status":"PASS",
    "score":1,
    "site":"KITCHEN",
    "weight":2,
    "rats":"0",
    "bugs":"0",
    "slime":"0",
    "condemned":"0"
  },
  {
    "id":209462,
    "name":"THE EMERY/WEINER SCHOOL",
    "date":"2013-11-04 00:00:00",
    "lat":29.6761,
    "lng":-95.4398,
    "cuisine":"",
    "status":"PASS",
    "score":1,
    "site":"TOTAL ESTABLISHMENT",
    "weight":2,
    "rats":"0",
    "bugs":"0",
    "slime":"0",
    "condemned":"0"
  },
  {
    "id":209468,
    "name":"CENTRAL CHINA RESTAURANT",
    "date":"2014-01-23 00:00:00",
    "lat":29.705,
    "lng":-95.5497,
    "cuisine":"CHINESE",
    "status":"FAIL",
    "score":3,
    "site":"KITCHEN",
    "weight":13,
    "rats":"0",
    "bugs":"0",
    "slime":"0",
    "condemned":"0"
  },
  {
    "id":209477,
    "name":"CVS PHARMACY #3177",
    "date":"2014-02-26 00:00:00",
    "lat":29.7316,
    "lng":-95.4673,
    "cuisine":"",
    "status":"PASS",
    "score":2,
    "site":"0",
    "weight":7,
    "rats":"0",
    "bugs":"0",
    "slime":"0",
    "condemned":"0"
  },
  {
    "id":209489,
    "name":"CHEDDAR'S CASUAL CAFE",
    "date":"2014-02-25 00:00:00",
    "lat":29.7219,
    "lng":-95.5588,
    "cuisine":"BAR & GRILL",
    "status":"PASS",
    "score":2,
    "site":"Total Establishment",
    "weight":7,
    "rats":"0",
    "bugs":"0",
    "slime":"0",
    "condemned":"0"
  },
  {
    "id":209497,
    "name":"BURGER KING",
    "date":"2013-09-04 00:00:00",
    "lat":29.7373,
    "lng":-95.5327,
    "cuisine":"BURGERS, ETC.",
    "status":"PASS",
    "score":1,
    "site":"ESTABLISHMENT",
    "weight":2,
    "rats":"0",
    "bugs":"0",
    "slime":"0",
    "condemned":"0"
  },
  {
    "id":209663,
    "name":"NEW TIMMY CHAN #12",
    "date":"2014-03-20 00:00:00",
    "lat":29.8443,
    "lng":-95.4732,
    "cuisine":"CHICKEN",
    "status":"PASS",
    "score":2,
    "site":"KITCHEN",
    "weight":7,
    "rats":"0",
    "bugs":"0",
    "slime":"0",
    "condemned":"0"
  },
  {
    "id":209674,
    "name":"SUNRISE GROCERY #11",
    "date":"2013-11-12 00:00:00",
    "lat":29.7812,
    "lng":-95.373,
    "cuisine":"",
    "status":"PASS",
    "score":1,
    "site":"store",
    "weight":4,
    "rats":"0",
    "bugs":"0",
    "slime":"0",
    "condemned":"0"
  },
  {
    "id":209686,
    "name":"ON THE PARK",
    "date":"2013-07-17 00:00:00",
    "lat":30.0495,
    "lng":-95.238,
    "cuisine":"",
    "status":"PASS",
    "score":1,
    "site":"0",
    "weight":3,
    "rats":"0",
    "bugs":"0",
    "slime":"0",
    "condemned":"0"
  },
  {
    "id":209705,
    "name":"SMOOTHIE KING #365",
    "date":"2013-10-10 00:00:00",
    "lat":29.9436,
    "lng":-95.4075,
    "cuisine":"BEVERAGES, ETC.",
    "status":"PASS",
    "score":1,
    "site":"TOTAL ESTABLISHMENT",
    "weight":4,
    "rats":"0",
    "bugs":"0",
    "slime":"1",
    "condemned":"0"
  },
  {
    "id":210641,
    "name":"ALLBRIGHT ACADEMY",
    "date":"2013-08-01 00:00:00",
    "lat":29.6761,
    "lng":-95.596,
    "cuisine":"",
    "status":"PASS",
    "score":2,
    "site":"KITCHEN",
    "weight":9,
    "rats":"0",
    "bugs":"0",
    "slime":"0",
    "condemned":"0"
  },
  {
    "id":210642,
    "name":"LASAGNA HOUSE III",
    "date":"2014-02-13 00:00:00",
    "lat":29.7359,
    "lng":-95.6243,
    "cuisine":"ITALIAN",
    "status":"PASS",
    "score":1,
    "site":"ESTABLISHMENT",
    "weight":1,
    "rats":"0",
    "bugs":"0",
    "slime":"0",
    "condemned":"0"
  },
  {
    "id":210652,
    "name":"HALPIN EARLY CHILDHOOD CENTER",
    "date":"2013-10-23 00:00:00",
    "lat":29.6616,
    "lng":-95.5033,
    "cuisine":"",
    "status":"PASS",
    "score":1,
    "site":"TOTAL ESTABLISHMENT",
    "weight":3,
    "rats":"0",
    "bugs":"0",
    "slime":"0",
    "condemned":"0"
  },
  {
    "id":210658,
    "name":"CHIPOTLE MEXICAN GRILL # 249",
    "date":"2014-02-24 00:00:00",
    "lat":29.7317,
    "lng":-95.4658,
    "cuisine":"MEXICAN / HISPANIC",
    "status":"PASS",
    "score":1,
    "site":"KITCHEN",
    "weight":4,
    "rats":"0",
    "bugs":"0",
    "slime":"0",
    "condemned":"0"
  },
  {
    "id":210659,
    "name":"TRES MARKET",
    "date":"2013-12-09 00:00:00",
    "lat":29.7726,
    "lng":-95.5713,
    "cuisine":"",
    "status":"PASS",
    "score":1,
    "site":"Store",
    "weight":3,
    "rats":"0",
    "bugs":"0",
    "slime":"0",
    "condemned":"0"
  },
  {
    "id":210664,
    "name":"BOMBAY SWEETS / VEGETARIAN RESTAURANT",
    "date":"2014-01-30 00:00:00",
    "lat":29.7191,
    "lng":-95.5008,
    "cuisine":"INDIAN / PAKISTANI",
    "status":"PASS",
    "score":2,
    "site":"KITCHEN/FRONT SERVICE",
    "weight":7,
    "rats":"0",
    "bugs":"0",
    "slime":"0",
    "condemned":"0"
  },
  {
    "id":210680,
    "name":"NOVEDADES HONDURAS",
    "date":"2013-12-16 00:00:00",
    "lat":29.7074,
    "lng":-95.52,
    "cuisine":"",
    "status":"PASS",
    "score":1,
    "site":"ESTABLISHMENT",
    "weight":2,
    "rats":"0",
    "bugs":"0",
    "slime":"0",
    "condemned":"0"
  },
  {
    "id":210691,
    "name":"THE STAG'S HEAD",
    "date":"2014-04-01 00:00:00",
    "lat":29.7334,
    "lng":-95.4111,
    "cuisine":"LOCAL / CONTINENTAL",
    "status":"FAIL",
    "score":3,
    "site":"TOTAL EST.",
    "weight":16,
    "rats":"0",
    "bugs":"0",
    "slime":"0",
    "condemned":"1"
  },
  {
    "id":210692,
    "name":"EMPORIO BRAZILIAN CAFE'",
    "date":"2013-12-04 00:00:00",
    "lat":29.7364,
    "lng":-95.5969,
    "cuisine":"MEXICAN / HISPANIC",
    "status":"PASS",
    "score":1,
    "site":"Kitchen",
    "weight":3,
    "rats":"0",
    "bugs":"0",
    "slime":"0",
    "condemned":"0"
  },
  {
    "id":210697,
    "name":"LA COSTENA MEAT MARKET",
    "date":"2013-12-27 00:00:00",
    "lat":29.7215,
    "lng":-95.5392,
    "cuisine":"",
    "status":"FAIL",
    "score":4,
    "site":"Total Establishment",
    "weight":20,
    "rats":"0",
    "bugs":"0",
    "slime":"1",
    "condemned":"0"
  },
  {
    "id":210698,
    "name":"SHOP -N- GO",
    "date":"2014-01-31 00:00:00",
    "lat":29.7119,
    "lng":-95.4937,
    "cuisine":"",
    "status":"PASS",
    "score":2,
    "site":"GROCERY",
    "weight":5,
    "rats":"0",
    "bugs":"0",
    "slime":"0",
    "condemned":"0"
  },
  {
    "id":210700,
    "name":"BIGWICK LIQUOR STORE",
    "date":"2013-10-04 00:00:00",
    "lat":29.6905,
    "lng":-95.5014,
    "cuisine":"",
    "status":"FAIL",
    "score":5,
    "site":"0",
    "weight":1,
    "rats":"0",
    "bugs":"0",
    "slime":"0",
    "condemned":"0"
  },
  {
    "id":210750,
    "name":"TAQUERIA GOVEA - El Guero",
    "date":"2013-12-12 00:00:00",
    "lat":29.7051,
    "lng":-95.2446,
    "cuisine":"",
    "status":"PASS",
    "score":1,
    "site":"7411 Park Place",
    "weight":5,
    "rats":"0",
    "bugs":"0",
    "slime":"0",
    "condemned":"0"
  },
  {
    "id":210837,
    "name":"ESTRADA'S TAQUERIA - Texas",
    "date":"2014-03-20 00:00:00",
    "lat":29.7765,
    "lng":-95.2185,
    "cuisine":"",
    "status":"PASS",
    "score":2,
    "site":"7411 PARK PLACE",
    "weight":6,
    "rats":"0",
    "bugs":"0",
    "slime":"0",
    "condemned":"0"
  },
  {
    "id":210877,
    "name":"TACOS  TEPO-PALACIOS",
    "date":"2014-03-28 00:00:00",
    "lat":29.7004,
    "lng":-95.3009,
    "cuisine":"",
    "status":"PASS",
    "score":1,
    "site":"7411 PARK PLACE",
    "weight":2,
    "rats":"0",
    "bugs":"0",
    "slime":"0",
    "condemned":"0"
  },
  {
    "id":210961,
    "name":"HOUSTON AREA WOMEN'S CENTER",
    "date":"2013-10-10 00:00:00",
    "lat":29.6866,
    "lng":-95.3831,
    "cuisine":"",
    "status":"PASS",
    "score":1,
    "site":"KITCHEN",
    "weight":2,
    "rats":"0",
    "bugs":"0",
    "slime":"0",
    "condemned":"0"
  },
  {
    "id":210962,
    "name":"WINGSTOP",
    "date":"2013-07-01 00:00:00",
    "lat":29.9213,
    "lng":-95.5215,
    "cuisine":"OTHER",
    "status":"PASS",
    "score":2,
    "site":"Kitchen",
    "weight":5,
    "rats":"0",
    "bugs":"0",
    "slime":"0",
    "condemned":"0"
  },
  {
    "id":210974,
    "name":"DENNY'S",
    "date":"2013-07-25 00:00:00",
    "lat":29.8191,
    "lng":-95.4689,
    "cuisine":"BREAKFAST",
    "status":"PASS",
    "score":1,
    "site":"ESTABLISHMENT",
    "weight":2,
    "rats":"0",
    "bugs":"0",
    "slime":"0",
    "condemned":"0"
  },
  {
    "id":210986,
    "name":"CAFE RED ONION",
    "date":"2013-09-03 00:00:00",
    "lat":29.8374,
    "lng":-95.4875,
    "cuisine":"",
    "status":"PASS",
    "score":1,
    "site":"ESTABLISHMENT",
    "weight":2,
    "rats":"0",
    "bugs":"0",
    "slime":"0",
    "condemned":"0"
  },
  {
    "id":210988,
    "name":"DOMINO'S PIZZA #6649",
    "date":"2013-12-30 00:00:00",
    "lat":29.7953,
    "lng":-95.485,
    "cuisine":"PIZZA",
    "status":"PASS",
    "score":2,
    "site":"KITCHEN",
    "weight":5,
    "rats":"0",
    "bugs":"0",
    "slime":"0",
    "condemned":"0"
  },
  {
    "id":210991,
    "name":"JUDSON ROBINSON ELEMENTARY SCHOOL",
    "date":"2013-11-19 00:00:00",
    "lat":29.7893,
    "lng":-95.2116,
    "cuisine":"",
    "status":"PASS",
    "score":1,
    "site":"Kitchen",
    "weight":2,
    "rats":"0",
    "bugs":"0",
    "slime":"0",
    "condemned":"0"
  },
  {
    "id":210994,
    "name":"DANIEL ORTIZ MIDDLE SCHOOL",
    "date":"2014-03-26 00:00:00",
    "lat":29.6634,
    "lng":-95.2889,
    "cuisine":"",
    "status":"PASS",
    "score":1,
    "site":"KITCHEN",
    "weight":4,
    "rats":"0",
    "bugs":"0",
    "slime":"0",
    "condemned":"0"
  },
  {
    "id":210996,
    "name":"SEGUIN ELEMENTARY SCHOOL",
    "date":"2013-09-24 00:00:00",
    "lat":29.679,
    "lng":-95.3068,
    "cuisine":"",
    "status":"PASS",
    "score":1,
    "site":"TOTAL ESTABLISHMENT",
    "weight":1,
    "rats":"0",
    "bugs":"0",
    "slime":"0",
    "condemned":"0"
  },
  {
    "id":210999,
    "name":"SMOOTHIE KING",
    "date":"2013-12-02 00:00:00",
    "lat":29.7586,
    "lng":-95.3658,
    "cuisine":"BEVERAGES, ETC.",
    "status":"PASS",
    "score":1,
    "site":"0",
    "weight":1,
    "rats":"0",
    "bugs":"0",
    "slime":"0",
    "condemned":"0"
  },
  {
    "id":211009,
    "name":"SONIC DRIVE-IN #041-1104",
    "date":"2013-11-13 00:00:00",
    "lat":29.8678,
    "lng":-95.4883,
    "cuisine":"BURGERS, ETC.",
    "status":"PASS",
    "score":3,
    "site":"KITCHEN",
    "weight":13,
    "rats":"0",
    "bugs":"0",
    "slime":"0",
    "condemned":"0"
  },
  {
    "id":211013,
    "name":"DEL'S ICE CREAM",
    "date":"2014-02-25 00:00:00",
    "lat":29.7814,
    "lng":-95.362,
    "cuisine":"",
    "status":"PASS",
    "score":1,
    "site":"KITCHEN",
    "weight":1,
    "rats":"0",
    "bugs":"0",
    "slime":"0",
    "condemned":"0"
  },
  {
    "id":211102,
    "name":"KFC/TACO BELL",
    "date":"2014-02-12 00:00:00",
    "lat":29.6991,
    "lng":-95.2966,
    "cuisine":"CHICKEN",
    "status":"PASS",
    "score":2,
    "site":"TOTAL ESTABLISHMENT",
    "weight":6,
    "rats":"0",
    "bugs":"0",
    "slime":"0",
    "condemned":"0"
  },
  {
    "id":211124,
    "name":"POLLO'S ASADOS AL CARBON LA SL",
    "date":"2013-11-14 00:00:00",
    "lat":29.7481,
    "lng":-95.3271,
    "cuisine":"MEXICAN / HISPANIC",
    "status":"PASS",
    "score":1,
    "site":"TOTAL ESTABLISHMENT",
    "weight":2,
    "rats":"1",
    "bugs":"0",
    "slime":"0",
    "condemned":"0"
  },
  {
    "id":211125,
    "name":"FRENCHY'S BLODGETT",
    "date":"2014-03-06 00:00:00",
    "lat":29.7172,
    "lng":-95.3535,
    "cuisine":"",
    "status":"PASS",
    "score":1,
    "site":"KITCHEN",
    "weight":2,
    "rats":"0",
    "bugs":"0",
    "slime":"0",
    "condemned":"0"
  },
  {
    "id":211141,
    "name":"ABE'S CAJUN MARKET",
    "date":"2013-12-10 00:00:00",
    "lat":29.5812,
    "lng":-95.1562,
    "cuisine":"CAJUN",
    "status":"PASS",
    "score":1,
    "site":"TOTAL EST.",
    "weight":4,
    "rats":"0",
    "bugs":"0",
    "slime":"0",
    "condemned":"0"
  },
  {
    "id":211142,
    "name":"RED CARPET INN-HOBBY REGENCY",
    "date":"2014-02-11 00:00:00",
    "lat":29.7128,
    "lng":-95.3111,
    "cuisine":"",
    "status":"PASS",
    "score":1,
    "site":"Coffee Bar",
    "weight":3,
    "rats":"0",
    "bugs":"0",
    "slime":"0",
    "condemned":"0"
  },
  {
    "id":211147,
    "name":"TEXAS ROADHOUSE",
    "date":"2014-03-03 00:00:00",
    "lat":29.5552,
    "lng":-95.1562,
    "cuisine":"BAR & GRILL",
    "status":"FAIL",
    "score":3,
    "site":"TOTAL ESTABLISHMENT",
    "weight":13,
    "rats":"0",
    "bugs":"1",
    "slime":"0",
    "condemned":"0"
  },
  {
    "id":211148,
    "name":"DIANA FOOD MARKET",
    "date":"2013-12-05 00:00:00",
    "lat":29.5583,
    "lng":-95.1172,
    "cuisine":"",
    "status":"PASS",
    "score":2,
    "site":"GROCERY",
    "weight":7,
    "rats":"0",
    "bugs":"0",
    "slime":"0",
    "condemned":"0"
  },
  {
    "id":211151,
    "name":"CENTRAL BAKERY",
    "date":"2014-01-03 00:00:00",
    "lat":29.7473,
    "lng":-95.3246,
    "cuisine":"",
    "status":"PASS",
    "score":2,
    "site":"TOTAL ESTABLISHMENT",
    "weight":7,
    "rats":"0",
    "bugs":"0",
    "slime":"0",
    "condemned":"0"
  },
  {
    "id":211162,
    "name":"EL BOLILLO BAKERY #2",
    "date":"2014-04-10 00:00:00",
    "lat":29.7006,
    "lng":-95.2862,
    "cuisine":"",
    "status":"PASS",
    "score":2,
    "site":"KITCHEN",
    "weight":5,
    "rats":"0",
    "bugs":"0",
    "slime":"0",
    "condemned":"0"
  },
  {
    "id":211168,
    "name":"CHARLE'S DELI",
    "date":"2013-08-14 00:00:00",
    "lat":29.8459,
    "lng":-95.5008,
    "cuisine":"DELI",
    "status":"PASS",
    "score":1,
    "site":"KITCHEN",
    "weight":3,
    "rats":"0",
    "bugs":"0",
    "slime":"0",
    "condemned":"0"
  },
  {
    "id":211180,
    "name":"SILVERADO SENIOR LIVING",
    "date":"2014-04-15 00:00:00",
    "lat":30.0478,
    "lng":-95.2535,
    "cuisine":"",
    "status":"PASS",
    "score":1,
    "site":"WELLNESS CENTER",
    "weight":3,
    "rats":"0",
    "bugs":"0",
    "slime":"0",
    "condemned":"0"
  },
  {
    "id":211186,
    "name":"LES GIVRAL'S SANDWICH & CAFE",
    "date":"2013-11-08 00:00:00",
    "lat":29.7456,
    "lng":-95.3765,
    "cuisine":"VIETNAMESE",
    "status":"PASS",
    "score":1,
    "site":"Kitchen",
    "weight":3,
    "rats":"0",
    "bugs":"0",
    "slime":"0",
    "condemned":"0"
  },
  {
    "id":211194,
    "name":"WENDY'S",
    "date":"2013-09-10 00:00:00",
    "lat":30.0515,
    "lng":-95.246,
    "cuisine":"BURGERS, ETC.",
    "status":"PASS",
    "score":1,
    "site":"Kitchen",
    "weight":2,
    "rats":"0",
    "bugs":"0",
    "slime":"0",
    "condemned":"0"
  },
  {
    "id":211201,
    "name":"LEDUC GOURMET BAKERY",
    "date":"2014-01-07 00:00:00",
    "lat":29.7039,
    "lng":-95.5816,
    "cuisine":"",
    "status":"PASS",
    "score":1,
    "site":"Store",
    "weight":1,
    "rats":"0",
    "bugs":"0",
    "slime":"0",
    "condemned":"0"
  },
  {
    "id":211227,
    "name":"HOMESTEAD GROCERY",
    "date":"2013-10-12 00:00:00",
    "lat":29.8354,
    "lng":-95.302,
    "cuisine":"OTHER",
    "status":"PASS",
    "score":1,
    "site":"Store",
    "weight":4,
    "rats":"0",
    "bugs":"0",
    "slime":"0",
    "condemned":"0"
  },
  {
    "id":211240,
    "name":"KIDS PLUS ACADEMY",
    "date":"2014-03-10 00:00:00",
    "lat":29.8405,
    "lng":-95.3239,
    "cuisine":"",
    "status":"PASS",
    "score":1,
    "site":"TOTAL ESTABLISHMENT",
    "weight":1,
    "rats":"0",
    "bugs":"0",
    "slime":"0",
    "condemned":"0"
  },
  {
    "id":211246,
    "name":"SONIC DRIVE-IN #4441",
    "date":"2013-12-28 00:00:00",
    "lat":29.9828,
    "lng":-95.281,
    "cuisine":"BURGERS, ETC.",
    "status":"PASS",
    "score":2,
    "site":"Kitchen",
    "weight":7,
    "rats":"0",
    "bugs":"0",
    "slime":"0",
    "condemned":"0"
  },
  {
    "id":211257,
    "name":"VALU-KING",
    "date":"2014-01-14 00:00:00",
    "lat":29.8222,
    "lng":-95.329,
    "cuisine":"",
    "status":"PASS",
    "score":2,
    "site":"T0TAL ESTABLISHMENT",
    "weight":7,
    "rats":"0",
    "bugs":"0",
    "slime":"0",
    "condemned":"0"
  },
  {
    "id":211261,
    "name":"B & G TOBACCO & CANDY",
    "date":"2014-02-05 00:00:00",
    "lat":29.8372,
    "lng":-95.3833,
    "cuisine":"",
    "status":"PASS",
    "score":1,
    "site":"0",
    "weight":1,
    "rats":"0",
    "bugs":"0",
    "slime":"0",
    "condemned":"0"
  },
  {
    "id":211268,
    "name":"WOODRIDGE BAPTIST CHURCH",
    "date":"2014-01-08 00:00:00",
    "lat":30.0561,
    "lng":-95.1596,
    "cuisine":"",
    "status":"PASS",
    "score":1,
    "site":"Total Establishment",
    "weight":3,
    "rats":"0",
    "bugs":"0",
    "slime":"0",
    "condemned":"0"
  },
  {
    "id":211290,
    "name":"LUCKY FOOD STORE",
    "date":"2013-10-22 00:00:00",
    "lat":29.7816,
    "lng":-95.3897,
    "cuisine":"OTHER",
    "status":"PASS",
    "score":1,
    "site":"Store",
    "weight":2,
    "rats":"0",
    "bugs":"0",
    "slime":"0",
    "condemned":"0"
  },
  {
    "id":211294,
    "name":"DENNY'S #7754",
    "date":"2014-01-13 00:00:00",
    "lat":29.876,
    "lng":-95.4124,
    "cuisine":"LOCAL / CONTINENTAL",
    "status":"PASS",
    "score":1,
    "site":"KITCHEN",
    "weight":3,
    "rats":"0",
    "bugs":"0",
    "slime":"0",
    "condemned":"0"
  },
  {
    "id":211295,
    "name":"TAMPICO COMMISSARY",
    "date":"2014-02-28 00:00:00",
    "lat":29.8416,
    "lng":-95.3616,
    "cuisine":"",
    "status":"PASS",
    "score":2,
    "site":"ESTABLISHMENT",
    "weight":8,
    "rats":"0",
    "bugs":"0",
    "slime":"0",
    "condemned":"0"
  },
  {
    "id":211317,
    "name":"SUBWAY SANDWICH #25130",
    "date":"2014-01-30 00:00:00",
    "lat":29.76,
    "lng":-95.3981,
    "cuisine":"SANDWICHES",
    "status":"PASS",
    "score":1,
    "site":"KITCHEN",
    "weight":1,
    "rats":"0",
    "bugs":"0",
    "slime":"0",
    "condemned":"0"
  },
  {
    "id":211363,
    "name":"SUBWAY #13634",
    "date":"2013-08-18 00:00:00",
    "lat":29.8491,
    "lng":-95.2624,
    "cuisine":"SANDWICHES",
    "status":"PASS",
    "score":1,
    "site":"Store",
    "weight":3,
    "rats":"0",
    "bugs":"0",
    "slime":"0",
    "condemned":"0"
  },
  {
    "id":211365,
    "name":"K & H MEAT MARKET",
    "date":"2014-02-26 00:00:00",
    "lat":29.677,
    "lng":-95.3528,
    "cuisine":"",
    "status":"PASS",
    "score":1,
    "site":"TOTAL ESTABLISHMENT",
    "weight":1,
    "rats":"0",
    "bugs":"0",
    "slime":"0",
    "condemned":"0"
  },